NHPDPropertyID,PropertyName,Latitude,Longitude,PropertyStatus,TotalUnits,EarliestStartDate,EarliestEndDate,LatestEndDate
1064940,PITTSBORO VILLAGE II,35.7536830,-79.1925040,Active,40,1/1/87,1/1/02,4/19/58
1063587,BLANTON STREET APARTMENTS A B C D,35.2877000,-81.5478100,Inconclusive,4,1/1/90,1/1/20,1/1/20
1063697,PINE RIDGE: LOT 1,35.8129500,-77.8580400,Inconclusive,1,1/1/90,1/1/20,1/1/20
1102101,QUARTERPATH VILLAGE,35.7176010,-77.9179000,Inconclusive,1,1/1/90,1/1/20,1/1/20
1109003,LONGVIEW APARTMENTS (MAYSVILLE),34.9053400,-77.2326300,Active,24,1/1/90,1/1/20,6/28/40
1116369,MEADOWGREEN APARTMENTS III,36.3513600,-79.6891500,Active,50,1/3/80,1/1/20,12/22/40
1063198,YADKIN APARTMENTS II,36.2355880,-80.8382200,Inconclusive,25,10/24/15,10/23/20,10/23/20
1004758,SHEPHERD HOUSE,36.1317900,-79.7724000,Active,21,6/1/06,11/24/20,5/1/41
1063247,SOUTHMONT APARTMENTS,35.7381200,-81.6923200,Active,29,7/1/93,11/30/20,2/1/39
1063218,HAVELOCK HILL,34.8806200,-76.8889000,Active,54,5/1/02,12/21/20,11/1/46
1119962,ROLLING HILLS ESTATES,36.4295680,-77.9087210,Active,40,12/22/80,12/21/20,12/11/30
1063205,ARC/HDS ALAMANCE CO GH #6,36.0925700,-79.5092400,Inconclusive,6,12/23/15,12/22/20,12/22/20
1063159,ARLINGTON HILL,36.2312100,-80.8334400,Active,48,1/1/04,12/31/20,10/1/47
1063476,ROLLING HILLS APARTMENTS,36.1030700,-80.2182600,Active,110,1/1/91,1/1/21,11/30/36
1063574,LINCOLN GROVE APARTMENTS,36.0751200,-79.7462100,Inconclusive,116,1/1/91,1/1/21,1/1/21
1063761,409 SYKES AVE,36.0834800,-79.7477300,Inconclusive,6,1/1/91,1/1/21,1/1/21
1063762,405 FLINT ST,35.2706800,-81.1649300,Inconclusive,9,1/1/91,1/1/21,1/1/21
1063772,KENT STREET APARTMENTS,34.2289100,-77.9177800,Inconclusive,12,1/1/91,1/1/21,1/1/21
1063775,LONDON CHURCH ROAD APARTMENTS,35.7391600,-77.8886600,Inconclusive,26,1/1/91,1/1/21,1/1/21
1063785,SENIOR VILLAGE,35.3034800,-81.5236000,Inconclusive,36,1/1/91,1/1/21,1/1/21
1063786,SPENCER STREET APARTMENTS,36.0681600,-79.7580880,Inconclusive,20,1/1/91,1/1/21,1/1/21
1063788,TATEM VILLAGE,36.2916600,-76.2232000,Inconclusive,19,1/1/91,1/1/21,1/1/21
1063789,TEAMWORK FOR HOUSING,35.8901200,-80.0635200,Inconclusive,19,1/1/91,1/1/21,1/1/21
1064594,N WARRENTON VILLAGE,36.3237590,-78.1467170,Inconclusive,18,1/1/91,1/1/21,1/1/21
1111251,CURRIN APARTMENTS,35.4070200,-78.6775500,Active,16,1/1/91,1/1/21,6/12/47
1114756,LONG CREEK COURT,36.2244350,-78.4513130,Active,14,1/1/91,1/1/21,9/23/41
1115861,NEW CHERRYWOOD APARTMENTS,35.3785400,-81.3619300,Active,48,1/1/91,1/1/21,5/31/40
1115947,PUNGO VILLAGE,35.5110800,-76.6559000,Active,38,1/1/91,1/1/21,2/27/41
1116867,ELK COURT APARTMENTS,36.2697440,-80.8519840,Active,40,1/1/91,1/1/21,3/11/40
1117164,SNOW HILL RIDGE,35.4467400,-77.6634400,Active,32,1/1/91,1/1/21,10/30/32
1118561,RIDGECREST APARTMENTS,35.3880300,-78.5372200,Active,32,1/1/91,1/1/21,6/19/41
1118812,ROCKMOOR APARTMENTS,36.1645800,-81.8775900,Active,12,1/1/91,1/1/21,2/22/41
1120300,SHEFFIELD MANOR,35.7286800,-79.4528400,Active,36,1/1/91,1/1/21,6/22/41
1121148,BROOKWAY VILLAGE,35.9764890,-77.9561400,Active,36,1/1/91,1/1/21,2/27/59
1121398,THE WILLOWS,36.2951400,-78.5973000,Active,40,1/1/91,1/1/21,2/27/59
1122255,BLACK RIVER VILLAGE APARTMENTS PHASE II,35.4964500,-78.7383800,Inconclusive,32,1/1/91,1/1/21,1/1/21
1063351,OAK HILL APARTMENTS,36.3345400,-78.4279100,Active,50,7/1/93,1/20/21,2/1/39
1063419,ASHEVILLE TERRACE APARTMENTS,35.5874500,-82.5275600,Active,248,1/2/18,1/31/21,1/31/21
1063496,RANDOLPH HILL APARTMENTS,35.7407560,-79.6517520,Active,40,7/1/93,1/31/21,3/1/39
1063065,ARC/HDS WILSON COUNTY GROUP HOME #1,35.7317660,-77.9115610,Active,6,2/11/16,2/10/21,2/10/21
1063111,ARC/HDS DUPLIN CO GH #1,34.8989810,-78.0529300,Active,6,2/11/16,2/10/21,2/10/21
1064415,,35.2112140,-80.7523600,Active,5,2/15/11,2/15/21,2/15/21
1023140,AS MECKLENBURG CO GH #2,35.1962400,-80.7820800,Active,7,12/21/92,2/23/21,4/1/32
1023148,AS MECKLENBURG CO GH #1,35.2571900,-80.9223000,Active,7,12/21/92,2/23/21,4/1/32
1063478,ARC/HDS LENOIR CO GROUP HOME #3,35.3155200,-77.5962000,Active,6,2/25/16,2/28/21,2/28/21
1063189,LAGRANGE MEADOWS APARTMENTS,35.3076000,-77.7829600,Active,46,7/1/93,3/1/21,2/1/39
1063091,IN-CHU-CO APARTMENTS,35.9362900,-79.0314900,Active,79,1/1/93,3/3/21,12/1/55
1019398,ARC/HDS ALAMANCE CO GH #7,36.0840400,-79.2657800,Active,7,3/11/20,3/10/21,3/10/21
1019695,ARC/HDS ALAMANCE CO GH #8,36.1577700,-79.4456400,Active,7,3/12/20,3/11/21,3/11/21
1117805,WALNUT TERRACE,35.8581100,-77.0665200,Active,50,11/20/80,3/11/21,4/12/31
1065461,,35.9293880,-77.7886080,Active,24,3/21/16,3/21/21,3/21/21
1023146,AS DURHAM CO GROUP HOME #1,36.0854100,-78.8872300,Active,7,12/11/92,3/23/21,6/1/32
1023150,AS WAKE CO GH #1,35.7799800,-78.6000700,Active,7,1/29/93,3/23/21,6/1/32
1063101,KOINONIA APARTMENTS,35.9159900,-81.5404200,Active,84,4/1/07,3/24/21,3/1/42
1065081,JEROME HOUSE,36.2889200,-80.8526400,Active,1,3/28/06,3/28/21,3/28/21
1008722,SELF HELP,35.9835600,-78.9059800,Active,2,3/29/11,3/29/21,3/29/21
1063271,SANDY RUN APARTMENTS I AND II,34.7677500,-77.3878900,Active,152,6/1/08,3/31/21,3/1/53
1063389,GLOVER PLAZA,34.2093500,-77.9280200,Active,75,12/1/91,3/31/21,3/31/21
1064955,MEADOW WOODS,36.4154840,-78.9534750,Active,44,3/12/80,3/31/21,2/28/30
1065378,,35.7550030,-81.6795640,Active,2,3/31/06,3/31/21,3/31/21
1121657,MYRTLE TERRACE APARTMENTS,35.2404710,-81.0414100,Active,32,4/10/79,3/31/21,3/28/29
1063125,COUNTRY VILLAGE,36.0871200,-80.3280200,Active,150,3/12/81,4/1/21,3/30/35
1023225,SMITHFIELD SENIOR MANOR,35.5384500,-78.3574000,Active,40,11/23/88,4/30/21,4/30/21
1063035,SILVER SPRINGS TERRACE - 053-002-NI,35.7369200,-81.2986200,Active,100,1/1/75,4/30/21,1/1/31
1063171,ERWIN ELDERLY HOUSING,35.3328030,-78.6729750,Active,30,5/8/86,4/30/21,4/30/21
1063820,THORNE RIDGE II APARTMENTS,35.9402600,-77.7658700,Active,40,1/1/99,4/30/21,1/1/30
1064200,KINGSGATE HOUSING,36.0479190,-79.8012290,Active,36,4/30/01,4/30/21,4/30/21
1064686,LUMBERTON W - C - K LP,34.6236100,-78.9942800,Active,36,4/30/01,4/30/21,4/30/21
1111836,FAIR MEADOWS APARTMENTS,36.4467300,-77.6705300,Active,72,7/28/78,4/30/21,1/8/43
1119443,FOREST RIDGE APARTMENTS,35.4764400,-79.1537200,Active,40,2/28/80,4/30/21,2/15/30
1019709,BARRINGER GARDENS,35.2149940,-80.8896810,Active,48,5/7/20,5/6/21,5/6/21
1063254,SMC GROUP HOME II,35.2797700,-80.7586700,Active,6,9/13/88,5/14/21,8/1/26
1009610,MATTHEWS HOUSE,35.8639000,-78.6038300,Active,6,5/16/06,5/16/21,5/16/21
1019405,ARC/HDS UNION COUNTY GROUP HOME #3,34.9333200,-80.5286100,Active,7,5/19/20,5/18/21,5/18/21
1023227,WHITTECAR HOME,35.8027300,-78.5883900,Active,7,5/26/93,5/20/21,8/1/32
1118021,BROWN'S TERRACE APARTMENTS,34.8195210,-77.9325640,Active,30,8/4/80,5/20/21,7/23/30
1063090,HOLLAND HOMES,36.1048060,-80.2292160,Active,114,6/1/11,5/31/21,12/1/52
1064952,KINGSWAY APARTMENTS,36.2750780,-80.3768460,Active,28,1/1/00,5/31/21,1/1/30
1065447,CITY OF RALEIGH 806-810 E JONES ST,35.7819560,-78.6279020,Active,4,5/31/06,5/31/21,5/31/21
1063284,VARITA COURT APARTMENTS,35.7265550,-77.9084750,Active,24,7/1/81,6/1/21,2/28/32
1019571,ARC/HDS LEE COUNTY GROUP HOME,35.4751900,-79.2328800,Active,7,6/4/20,6/3/21,6/3/21
1064592,VILLA TRACE LIMITED PARTNERSHIP,36.3172010,-80.3400200,Active,48,6/7/01,6/7/21,6/7/21
1063862,WOODLAND MANOR,35.7371400,-81.3724700,Active,48,8/23/99,6/12/21,1/1/30
1064638,WILLOW RUN LLC,35.7335000,-81.7152500,Active,24,6/12/01,6/12/21,6/12/21
1004627,RSS SCATTERED HOMES,35.1094600,-80.7916500,Active,63,8/1/07,6/21/21,7/1/42
1064172,UNDERWOOD APARTMENTS,35.9952200,-78.9228100,Active,44,6/21/01,6/21/21,6/21/21
1065214,NEW CONSTRUCTION OF PERMANENT HOUSING,35.2582210,-81.1866470,Active,4,6/28/01,6/28/21,6/28/21
1019721,MOTHER TERESA VILLA,35.1142210,-80.9658780,Active,13,7/1/20,6/30/21,6/30/21
1063110,LUTHERHAUS,35.7375410,-81.3260340,Active,50,10/1/06,6/30/21,9/1/41
1112407,CEDAR HURST APARTMENTS,36.3311100,-78.3943700,Active,52,6/30/80,6/30/21,1/8/43
1063314,ACADEMY VILLAGE APARTMENTS,36.0959800,-78.4594100,Active,50,8/1/81,7/1/21,8/1/32
1023161,JADE TREE/GLEN EDEN GROUP HOME,35.8706100,-78.6139500,Active,7,8/20/92,7/30/21,12/1/31
1004816,MHA HOUSING OF CENTRAL NC,35.9291300,-79.9782500,Active,51,7/1/07,7/31/21,6/1/42
1004945,MHA OF THE PIEDMONT,35.5195700,-78.3250300,Active,69,3/1/07,7/31/21,2/1/42
1004956,MHA HOUSING OF EASTERN NC,35.6041900,-77.8135500,Active,56,8/1/07,7/31/21,7/1/42
1004964,MHA HSG OF WESTERN NC,35.8032200,-80.8781600,Active,49,8/1/07,7/31/21,7/1/42
1063074,NEW BERN TOWERS,35.1040600,-77.0527800,Active,106,7/29/20,7/31/21,7/31/21
1063836,CROSSWINDS APARTMENTS,35.6924600,-80.5236400,Active,40,1/1/00,8/14/21,1/1/30
1019390,ARC/HDS LINCOLN COUNTY GROUP HOME,35.4741700,-81.2198100,Active,7,8/29/20,8/28/21,8/28/21
1019733,ARC/HDS CATAWBA CO GH #3,35.7277700,-81.2023030,Active,7,8/29/20,8/28/21,8/28/21
1019798,ARC/HDS GASTON CO GH #4,35.2499600,-81.1895300,Active,7,8/29/20,8/28/21,8/28/21
1019680,ARC/HDS RANDOLPH COUNTY GROUP HOME,35.6963000,-79.8217900,Active,7,8/30/20,8/29/21,8/29/21
1128141,,35.9443570,-77.8018220,Active,1,8/30/16,8/30/21,8/30/21
1063397,GIBSON VILLAGE,34.7552000,-79.6124000,Active,30,10/1/83,8/31/21,9/1/23
1017487,LAKE PARK APARTMENTS,36.1077940,-80.0905600,Inconclusive,150,10/1/81,9/1/21,9/1/21
1063300,LAKESIDE APARTMENTS,36.1097700,-79.4418100,Active,40,2/27/81,9/1/21,10/1/37
1000373,CAMPBELL RIDGE APARTMENTS,36.2675520,-80.3687580,Active,12,9/6/20,9/5/21,9/5/21
1064221,ELM GREEN APARTMENTS,34.8019140,-76.8590020,Active,48,1/1/99,9/17/21,1/1/29
1063158,YADKIN III APARTMENTS,36.2412470,-80.7087070,Active,22,9/2/16,9/30/21,9/30/21
1063160,SWANSBORO HILL APARTMENTS,34.6907750,-77.1379890,Active,48,1/1/02,9/30/21,12/1/46
1063280,UNITED MANOR COURTS,35.9086400,-77.5258500,Active,50,2/1/72,9/30/21,7/30/24
1063379,WESLEYAN HOMES OF TROY,35.3847200,-79.8754200,Active,40,6/2/87,9/30/21,1/1/27
1065209,,35.9377000,-79.0089250,Active,1,9/30/06,9/30/21,9/30/21
1065213,,35.9043690,-79.0649460,Active,1,9/30/06,9/30/21,9/30/21
1010175,NHS SCATTERED SITE APARTMENTS,35.6039280,-82.5480140,Active,16,10/20/01,10/20/21,10/20/21
1065287,,35.9555450,-80.0120850,Active,4,10/24/11,10/24/21,10/24/21
1147324,,35.4997100,-80.8491710,Active,32,10/25/01,10/25/21,10/25/21
1063373,RM WILSON APARTMENTS,35.9388100,-77.7931500,Active,50,12/1/81,11/1/21,4/1/51
1064947,BRAEBOURNE LP,35.8732690,-78.6913600,Active,50,11/6/01,11/6/21,11/6/21
1063894,WIND RIDGE,35.6043100,-82.6161500,Active,40,1/1/01,11/15/21,1/1/31
1064692,BAY RIVER LP,35.1655700,-76.7116100,Active,20,11/15/01,11/15/21,11/15/21
1023229,WNC COMMUNITY HOMES #3,35.4111300,-80.5492310,Active,7,2/3/93,11/20/21,12/1/31
1019794,HOFFMAN HOMES,35.2324420,-81.1358000,Active,81,2/1/04,11/30/21,11/30/21
1063421,HIGHLAND GREEN APARTMENTS,36.3199400,-78.3915500,Active,50,5/1/82,11/30/21,1/1/34
1019604,ARC/HDS GUILFORD CO GH #6,36.1297090,-79.8501600,Active,7,12/7/20,12/6/21,12/6/21
1115992,HOLLY PLAZA APARTMENTS,34.4938000,-77.5499400,Active,45,6/30/80,12/8/21,12/18/29
1023142,AS NEW HANOVER CO GH #1,34.1882820,-77.9032310,Active,7,11/9/92,12/29/21,2/1/32
1023144,AS NEW HANOVER CO GH #2,34.2129440,-77.9272740,Active,7,11/9/92,12/29/21,2/1/32
1115853,BELHAVEN SQUARE,35.5400490,-76.6201860,Active,32,2/17/82,12/31/21,2/5/32
1019716,ARC/HDS MECKLENBURG COUNTY GROUP HOME,35.2178500,-80.7491700,Active,7,1/2/21,1/1/22,1/1/22
1063238,JEFFERSON VILLAGE APARTMENTS,34.9831100,-80.5561800,Active,20,2/1/82,1/1/22,11/1/36
1063526,2915 LIBERTY RD,36.0301000,-79.7671000,Active,1,1/1/92,1/1/22,1/1/22
1063529,318 CROMER ST,35.2604000,-80.8856300,Active,1,1/1/92,1/1/22,1/1/22
1063536,4713 CTNEY LN,35.6507800,-78.7087440,Active,1,1/1/92,1/1/22,1/1/22
1063543,ALLEN STREET,36.0501700,-79.7986200,Active,1,1/1/92,1/1/22,1/1/22
1063549,BERN ST HOUSING,35.1113500,-77.0458500,Inconclusive,1,1/1/92,1/1/22,1/1/22
1063553,FISHER HEIGHTS APARTMENTS,35.7764200,-78.6076000,Inconclusive,2,1/1/92,1/1/22,1/1/22
1063559,HARRELL APARTMENTS,35.9798000,-78.8890700,Active,4,1/1/92,1/1/22,1/1/22
1063561,HARRELL-SMITH APARTMENTS,35.9796600,-78.8881100,Active,3,1/1/92,1/1/22,1/1/22
1063563,HOPKINS STREET APARTMENTS,35.9920400,-78.8887300,Inconclusive,4,1/1/92,1/1/22,1/1/22
1063565,INGLESIDE APARTMENTS,36.0948800,-79.7472500,Inconclusive,3,1/1/92,1/1/22,1/1/22
1063568,KINGS GRANT COURT,35.7981900,-80.8547800,Active,36,1/1/92,1/1/22,1/1/22
1063578,LANE WOODS: LOT #4,35.7452500,-77.9149700,Inconclusive,4,1/1/92,1/1/22,1/1/22
1063580,LANE WOODS: LOT #5,35.7452800,-77.9149900,Active,4,1/1/92,1/1/22,1/1/22
1063584,MCLOUIS CLAYTON RENTAL UNIT,35.9682800,-79.9813400,Active,1,1/1/92,1/1/22,1/1/22
1063590,NEALTOWN ROAD,36.1043500,-79.7348400,Inconclusive,1,1/1/92,1/1/22,1/1/22
1063599,SENECA WOODS,35.2915910,-80.7880350,Active,50,1/1/92,1/1/22,1/1/22
1063605,STEVENS APARTMENTS II,36.0739100,-79.7412700,Inconclusive,1,1/1/92,1/1/22,1/1/22
1063609,SUMMERFIELD APARTMENTS,35.1343200,-80.9455300,Active,53,1/1/92,1/1/22,1/1/22
1063613,WALNUT STREET APARTMENTS,35.3809700,-77.9904000,Active,55,1/1/92,1/1/22,1/1/22
1063615,WILLARD ST APARTMENTS,36.0939700,-79.7477700,Inconclusive,2,1/1/92,1/1/22,1/1/22
1063617,WILLIAM H BAKER JR,36.0920800,-79.7452500,Active,1,1/1/92,1/1/22,1/1/22
1063619,WOODCROFT APARTMENTS,35.6115900,-82.5579600,Active,111,1/1/92,1/1/22,1/1/22
1063797,6 QUAD OAK DR,36.0907600,-79.7316800,Active,1,1/1/92,1/1/22,1/1/22
1063799,1102 EASTON RD,36.0920800,-79.7452500,Inconclusive,1,1/1/92,1/1/22,1/1/22
1063803,1405 BROWN BLVD,36.0561400,-79.7588400,Inconclusive,1,1/1/92,1/1/22,1/1/22
1064308,THIRTY-SIX EAST APARTMENTS,36.1168840,-80.2296130,Inconclusive,42,1/1/92,1/1/22,1/1/22
1064472,RESIDENCE,35.9765700,-79.6987700,Inconclusive,1,1/1/92,1/1/22,1/1/22
1064482,GRAY HILL,35.3772700,-77.4428700,Active,40,2/1/82,1/1/22,6/1/22
1064546,FOX HOLLOW SUBDIVISION,35.7383800,-78.6089000,Inconclusive,1,1/1/92,1/1/22,1/1/22
1064851,TRYON GROVE APARTMENTS,35.7454900,-78.6898600,Active,48,1/1/92,1/1/22,1/1/22
1102057,WOODFIELD SUBDIVISION,35.7041000,-77.8952500,Inconclusive,1,1/1/92,1/1/22,1/1/22
1102059,WOODFIELD SUBDIVISION,35.7041000,-77.8952500,Inconclusive,1,1/1/92,1/1/22,1/1/22
1102061,WOODFIELD SUBDIVISION,35.7041000,-77.8952500,Inconclusive,1,1/1/92,1/1/22,1/1/22
1102079,WOODFIELD SUBDIVISION: LOT 7 SECTION 3,35.7038800,-77.8956000,Active,1,1/1/92,1/1/22,1/1/22
1103771,WOODFIELD SUBDIVISION,35.7038800,-77.8956000,Inconclusive,1,1/1/92,1/1/22,1/1/22
1107557,THE VILLAGE AT STONE CREEK,35.7071340,-79.8049160,Active,56,1/1/92,1/1/22,1/1/22
1108421,COURTNEY LANE TOWNHOMES,35.8470700,-78.5705900,Inconclusive,1,1/1/92,1/1/22,1/1/22
1115564,THE HEDGES APARTMENTS,35.3877600,-78.5461500,Active,98,10/1/78,1/1/22,11/23/48
1115610,BERRY COURT APARTMENTS,34.3284190,-78.8304700,Active,40,1/1/92,1/1/22,5/29/42
1115642,SCOTLAND ARMS APARTMENTS,36.1293600,-77.4198000,Active,20,1/1/92,1/1/22,4/26/37
1115809,NEW HILLMONT VILLAGE APARTMENTS,35.5509900,-78.1983700,Active,24,1/1/92,1/1/22,5/31/40
1116819,PINE RIDGE APARTMENTS,36.3095500,-80.1403600,Active,24,1/1/88,1/1/22,10/29/35
1117253,OAKLAND VILLAGE APARTMENTS,36.4122500,-77.8718580,Active,38,1/1/92,1/1/22,5/31/40
1117502,BROOKHOLLOW APARTMENTS,35.4918100,-79.1862700,Active,50,11/19/79,1/1/22,12/8/46
1117827,ARRINGTON PLACE,36.3932600,-78.1520500,Active,36,1/1/92,1/1/22,6/6/42
1117936,MOUNTAIN VILLAGE APARTMENTS,36.4182900,-81.4549900,Active,60,1/1/92,1/1/22,12/15/41
1118638,KINGSWOOD APARTMENTS,36.2747000,-80.3760500,Active,40,1/1/92,1/1/22,6/18/38
1118663,AZALEA GARDENS APARTMENTS,36.4339000,-77.1127400,Active,33,1/1/92,1/1/22,9/11/37
1118820,CEDAR HILL APARTMENTS,35.2563700,-82.7152200,Active,33,1/1/92,1/1/22,4/22/42
1120005,EDEN ELDERLY HOUSING DBA HIDDEN VALLEY APARTMENTS,36.4868340,-79.7427380,Active,66,1/1/92,1/1/22,3/1/48
1120193,OAK FOREST APARTMENTS,35.3087300,-81.1772900,Active,60,9/1/80,1/1/22,12/8/46
1120322,SUMMERFIELD APARTMENTS,35.4484400,-79.1533500,Active,78,2/17/78,1/1/22,11/23/48
1121805,CRESTFIELD APARTMENTS,35.3807900,-78.5372700,Active,36,1/1/92,1/1/22,11/11/40
1122163,VILLAGE PLACE APARTMENTS,35.0081060,-78.0917470,Active,40,1/1/92,1/1/22,8/22/48
1122327,MARIA PARHAM APARTMENTS,36.3265700,-78.4081000,Active,31,1/1/92,1/1/22,11/28/42
1151328,4709 COURTNEY LANE,35.8470700,-78.5705900,Inconclusive,1,1/1/92,1/1/22,1/1/22
1151330,4713 COURTNEY LANE,35.8470700,-78.5705900,Inconclusive,1,1/1/92,1/1/22,1/1/22
1151336,WOODFIELD SUBDIVISION,35.7041000,-77.8952500,Inconclusive,1,1/1/92,1/1/22,1/1/22
1151337,WOODFIELD SUBDIVISION,35.7041000,-77.8952500,Inconclusive,1,1/1/92,1/1/22,1/1/22
1063080,NORTH HENDERSON HEIGHTS,36.3350600,-78.4042800,Active,76,3/1/82,1/7/22,2/1/22
1063832,CANTERBURY PLACE,36.3356000,-79.6612200,Active,40,1/1/00,1/17/22,1/1/30
1063856,TROON APARTMENTS,34.7388000,-76.6389500,Active,44,1/1/00,1/17/22,1/1/30
1063236,PUREFOY ROAD GROUP HOME,35.8978200,-79.0520400,Active,7,12/7/82,2/1/22,12/30/22
1019689,ARC/HDS CARTERET CO GH #2,34.7444050,-76.6520680,Active,7,2/5/21,2/4/22,2/4/22
1019559,ARC/HDS ROWAN COUNTY GROUP HOME #4,35.6780100,-80.4574900,Active,7,2/11/21,2/10/22,2/10/22
1064500,KOINONIA II,35.9159400,-81.5403900,Active,42,1/1/01,2/11/22,1/1/31
1064859,HAYMOUNT MANOR HOUSING ASSOCLP,35.0975490,-78.9687580,Active,48,2/11/02,2/11/22,2/11/22
1064834,CANE CREEK VILLAGE,36.0366240,-82.1404240,Active,24,1/1/00,2/12/22,1/1/30
1019474,ARC/HDS MOORE COUNTY GROUP HOME #3,35.4271500,-79.5754600,Active,7,2/15/21,2/14/22,2/14/22
1063840,GRESHAM PLACE APARTMENTS,34.2675800,-77.8399500,Active,51,1/1/00,2/16/22,1/1/30
1019625,ARC/HDS FORSYTH CO GH #6,36.1640000,-80.2958300,Active,7,2/20/21,2/19/22,2/19/22
1019780,ARC/HDS RUTHERFORD COUNTY GROUP HOME #2,35.3418400,-81.8832300,Active,7,2/20/21,2/19/22,2/19/22
1019596,ARC/HDS ALAMANCE CO GH #9,36.0491400,-79.3925000,Active,7,2/26/21,2/25/22,2/25/22
1019602,ARC/HDS GUILFORD CO GH #7,36.0567350,-79.7913280,Active,7,2/26/21,2/25/22,2/25/22
1019610,ARC/HDS GUILFORD CO GH #8,36.1261300,-79.8319900,Active,7,2/26/21,2/25/22,2/25/22
1019438,ARC/HDS CRAVEN CO GH #3,35.0736870,-77.0218780,Active,7,2/27/21,2/26/22,2/26/22
1019454,ARC/HDS WASHINGTON COUNTY GROUP HOME #3,35.8706000,-76.7337800,Active,7,2/27/21,2/26/22,2/26/22
1019769,ARC/HDS CUMBERLAND CO GH #7,35.1325100,-78.8825800,Active,7,2/27/21,2/26/22,2/26/22
1065319,,35.4903950,-80.6172990,Active,1,2/28/12,2/28/22,2/28/22
1019563,YADKIN HOUSE,35.6672600,-80.4675500,Active,67,4/1/82,3/1/22,7/31/33
1065059,DURHAM COMMUNITY LAND TRUSTEES,35.9965010,-78.9037310,Active,1,3/8/17,3/8/22,3/8/22
1065251,,35.2523800,-80.8289720,Active,2,3/22/12,3/22/22,3/22/22
1065253,,35.2525000,-80.8288850,Active,2,3/27/12,3/27/22,3/27/22
1064159,BEECHRIDGE APARTMENTS II,35.7282290,-78.8608230,Active,40,1/1/97,4/16/22,1/1/30
1064848,WEST CARY APARTMENTS,35.7633570,-78.7866540,Active,72,4/16/02,4/16/22,4/16/22
1064918,PARK PLACE II,35.8427250,-78.6337220,Active,50,4/18/02,4/18/22,4/18/22
1064628,BEECHRIDGE APARTMENTS,35.7478800,-78.6372200,Active,40,4/19/02,4/19/22,4/19/22
1065206,GARNER SCHOOL APARTMENTS,35.7100900,-78.6109500,Active,45,4/19/02,4/19/22,4/19/22
1004933,RICHMOND HILL,35.3605200,-81.9609000,Active,40,5/1/93,4/30/22,8/1/38
1122045,HILLCREST APARTMENTS,36.3371400,-78.4166900,Active,48,4/19/82,4/30/22,4/6/32
1008850,DCLT - RENTAL,35.9937000,-78.9207900,Active,3,5/1/12,5/1/22,5/1/22
1063107,DUPLIN COUNTY HOUSING,34.8297600,-78.0920600,Active,85,6/1/82,5/1/22,11/1/33
1064216,ROCKWOOD AH-1,35.9775900,-78.9244100,Active,20,5/1/02,5/1/22,5/1/22
1064421,,35.2110300,-80.8645100,Active,50,5/2/02,5/2/22,11/3/24
1108827,TYLER RUN II,36.0691600,-76.5924200,Active,60,8/18/76,5/2/22,4/13/36
1064830,DUNBAR PLACE APARTMENTS,35.5299240,-82.5213270,Active,74,9/1/87,5/6/22,5/11/24
1108513,MCKENZIE PARK APARTMENTS PHASE II,35.4577100,-79.1632400,Active,36,1/1/01,5/8/22,1/1/31
1063282,UMSTEAD DRIVE GROUP HOME,35.9231700,-79.0593300,Active,7,4/15/81,5/14/22,5/14/22
1065288,,35.9409280,-80.0012990,Active,1,5/30/12,5/30/22,5/30/22
1019456,PRINCE COURT APARTMENTS,35.8887730,-77.5293340,Active,30,7/1/82,6/1/22,9/30/42
1064672,LINCOLN TERRACE APARTMENTS,35.4100200,-81.2029400,Active,40,7/1/82,6/1/22,7/1/32
1063870,HIGHLAND VILLAGE,36.4976100,-81.1262500,Active,30,1/1/01,6/20/22,1/1/31
1116435,HOLIDAY VILLAGE APARTMENTS,34.9287730,-79.7949600,Active,40,9/24/81,6/30/22,9/12/31
1063245,SHERATON TOWERS,35.9604100,-80.0073800,Active,97,8/1/82,7/1/22,1/1/41
1065224,GOLDSBORO DEVELOPMENT CORP INC,35.3665830,-77.9785160,Active,12,7/23/07,7/23/22,7/23/22
1129723,CALLOWAY HOUSE MT AIRY,36.5265920,-80.6268160,Active,12,7/25/17,7/25/22,7/25/22
1063317,STONECROFT VILLAGE APARTMENTS,35.2794200,-81.1629000,Active,72,9/1/82,8/1/22,3/1/33
1064842,CROWELL SQUARE APARTMENTS,35.5539620,-82.6182530,Active,40,8/9/02,8/9/22,8/9/22
1063335,WILKES TOWERS,36.1596900,-81.1463700,Active,72,10/1/82,9/1/22,6/30/36
1118113,BALDWIN PLACE APARTMENTS,34.7374200,-79.3578300,Active,36,1/1/01,9/25/22,1/15/32
1065097,,35.6170920,-82.5554440,Active,1,9/26/02,9/26/22,9/26/22
1064154,WIND RIDGE APARTMENTS,35.5948700,-82.6179200,Active,40,10/7/02,10/7/22,5/13/24
1064223,M/F RENTAL HOUSING - WINDHILL,36.1201240,-79.7436520,Active,60,10/7/02,10/7/22,10/7/22
1064224,AUTUMN RIDGE APARTMENTS,34.7865600,-77.3936200,Active,48,11/5/02,11/5/22,11/5/22
1065312,ONYX ST ACQ AKA 1101 INDIANA CITY OF KANN,35.4724310,-80.6049290,Active,1,11/5/12,11/5/22,11/5/22
1063866,CRESTON COMMONS,35.1800500,-79.4261000,Active,48,1/1/01,11/6/22,1/1/31
1128118,,35.9952960,-78.9193340,Active,3,11/9/17,11/9/22,11/9/22
1116368,SCOTTISH WINDS APARTMENTS,34.7589770,-79.4753270,Active,36,1/1/01,11/13/22,1/15/32
1065185,CEDAR STREET APARTMENTS,35.7885600,-78.7771640,Active,4,12/5/12,12/5/22,12/5/22
1116068,WINDTREE APARTMENTS,33.9270600,-78.0291500,Active,24,1/1/02,12/10/22,7/28/32
1065207,PROPERTY ACQUISITION - RSI,35.9340260,-79.0123430,Active,1,12/31/07,12/31/22,12/31/22
1063026,HICKORY CREEK APARTMENTS,35.2907610,-81.5396720,Active,46,2/1/83,1/1/23,5/31/36
1063289,FOREST HILLS,35.7051200,-78.6240600,Inconclusive,136,2/1/83,1/1/23,1/1/23
1063621,1606 JOE LOUIS AVE,35.7702700,-78.6156800,Inconclusive,1,1/1/93,1/1/23,1/1/23
1063629,1924 TISCHER RD,35.7463400,-78.6740600,Active,1,1/1/93,1/1/23,1/1/23
1063631,1925 TISCHER RD,35.7463400,-78.6740600,Inconclusive,1,1/1/93,1/1/23,1/1/23
1063635,1929 TISCHER RD,35.7463400,-78.6740600,Active,1,1/1/93,1/1/23,1/1/23
1063636,1931 TISCHER RD,35.7463400,-78.6740600,Inconclusive,1,1/1/93,1/1/23,1/1/23
1063638,2120 HAWKINS ST,35.7765700,-78.6070200,Inconclusive,4,1/1/93,1/1/23,1/1/23
1063640,691 & 693 BODDIE ST APARTMENTS,36.3328000,-78.3879800,Active,2,1/1/93,1/1/23,1/1/23
1063648,ADAMS COURT APARTMENTS,35.0640400,-78.8967200,Active,40,1/1/93,1/1/23,1/1/23
1063650,BERN STREET HOUSING,35.1113500,-77.0458500,Inconclusive,1,1/1/93,1/1/23,1/1/23
1063652,CAPITAL TOWERS II,35.8458400,-78.6422400,Active,90,1/1/93,1/1/23,1/1/23
1063656,COLLEGE HOUSE,36.3227600,-78.4030300,Active,1,1/1/93,1/1/23,1/1/23
1063658,COURTYARD APARTMENTS II,36.3320400,-78.4382500,Active,38,1/1/93,1/1/23,1/1/23
1063660,FISKE ST APARTMENTS,35.9951600,-78.8746200,Active,2,1/1/93,1/1/23,1/1/23
1063662,HARLYN HOUSE APARTMENTS,35.3872400,-81.3861300,Inconclusive,4,1/1/93,1/1/23,1/1/23
1063668,MOORE STREET HOMES,35.7130730,-77.9066030,Inconclusive,8,1/1/93,1/1/23,1/1/23
1063670,NORTHSIDE APARTMENTS,35.7393400,-77.8888000,Inconclusive,19,1/1/93,1/1/23,1/1/23
1063672,ROBERSON HOUSING,36.3333600,-78.3895200,Active,2,1/1/93,1/1/23,1/1/23
1063676,SEVERSVILLE APARTMENTS,35.2408000,-80.8619600,Active,47,1/1/93,1/1/23,1/1/23
1063680,TRAILWOOD APARTMENTS,35.9876200,-78.9225900,Inconclusive,44,1/1/93,1/1/23,1/1/23
1063686,WATERFORD PLACE APARTMENTS,35.5632300,-77.0555900,Active,38,1/1/93,1/1/23,1/1/23
1064328,WOODBRIDGE APARTMENTS,34.2458600,-77.8954200,Active,43,9/30/73,1/1/23,1/1/23
1064408,MCMULLEN WOODS,35.0913020,-80.8522290,Active,55,1/1/93,1/1/23,1/1/23
1064468,AUNT MARY AVE,36.0901700,-79.7308700,Inconclusive,1,1/1/93,1/1/23,1/1/23
1064528,ROSEWOOD VILLAGE,36.4508600,-78.1932600,Active,40,1/1/93,1/1/23,2/27/59
1064596,DEER RUN APARTMENTS,36.3237590,-78.1467170,Active,31,1/1/93,1/1/23,1/1/23
1064632,SANDPIPER SQUARE APARTMENTS,36.1874300,-77.0938700,Active,24,1/1/93,1/1/23,1/1/23
1064887,GUILFORD GREENE,36.1445680,-79.5856080,Active,16,1/1/93,1/1/23,1/1/23
1064895,EPSOM ROAD APARTMENTS,36.3243000,-78.4097210,Active,2,1/1/93,1/1/23,1/1/23
1064898,KEENE STREET APARTMENTS OF HENDERSON,36.3243000,-78.4097210,Active,5,1/1/93,1/1/23,1/1/23
1064901,WEST PARK APARTMENTS,35.9916280,-78.9186600,Active,10,1/1/93,1/1/23,1/1/23
1064916,LYNNBANK HOMES,36.1961900,-78.4364930,Inconclusive,2,1/1/93,1/1/23,1/1/23
1106650,WESTOAKS APARTMENTS,35.8124900,-78.6280700,Active,50,1/1/93,1/1/23,1/1/23
1107497,PARK GLEN,35.7998200,-78.6063400,Inconclusive,1,1/1/93,1/1/23,1/1/23
1107535,AVONLEA APARTMENTS,35.8548920,-78.5761850,Active,44,1/1/93,1/1/23,1/1/23
1108526,BERKSHIRE DOWNS,35.8835900,-78.5582700,Inconclusive,1,1/1/93,1/1/23,1/1/23
1108530,BERKSHIRE DOWNS,35.8835900,-78.5582700,Inconclusive,1,1/1/93,1/1/23,1/1/23
1108538,BERKSHIRE DOWNS,35.8838900,-78.5587100,Inconclusive,1,1/1/93,1/1/23,1/1/23
1108540,BERKSHIRE DOWNS,35.8838900,-78.5587100,Inconclusive,1,1/1/93,1/1/23,1/1/23
1108542,BERKSHIRE DOWNS,35.8838900,-78.5587100,Inconclusive,1,1/1/93,1/1/23,1/1/23
1112885,OAK ESTATES,34.6198700,-78.6075900,Active,56,6/9/88,1/1/23,9/23/46
1115001,BAILEY PLACE,35.5785100,-78.7951700,Active,48,7/30/76,1/1/23,4/1/40
1115914,ADKINS GLEN,36.4698800,-79.9078800,Active,24,1/1/93,1/1/23,3/21/42
1117680,SHAMROCK TERRACE APARTMENTS,36.3954400,-80.7094700,Active,32,1/1/93,1/1/23,11/27/41
1117743,GRIFTON MANOR APARTMENTS,35.3710200,-77.4251800,Active,40,1/1/93,1/1/23,7/21/50
1119921,JOSEPH E PRICE ELDERLY CENTER,35.5460800,-78.2888200,Active,32,1/1/93,1/1/23,3/27/39
1120455,RIDGEMONT PLACE APARTMENTS,36.4181200,-79.9793700,Active,36,1/1/93,1/1/23,8/12/42
1120882,WOOD CREEK APARTMENTS,35.2585160,-81.5713370,Active,24,1/1/93,1/1/23,7/9/39
1121171,GIBSON MANOR APARTMENTS,34.7604000,-79.6024000,Active,24,1/1/93,1/1/23,11/16/37
1121214,SALEM WOODS APARTMENTS,35.0496100,-78.4948300,Active,24,1/1/93,1/1/23,1/28/34
1121354,SKYLAND APARTMENTS,35.9206600,-81.5154300,Active,34,1/1/93,1/1/23,1/30/43
1121877,MALLARD CREEK APARTMENTS,35.2990820,-76.7818740,Active,24,1/1/93,1/1/23,1/19/42
1122194,MOUNTAIN VIEW APARTMENTS,36.1987800,-81.1503700,Active,24,1/1/93,1/1/23,12/20/41
1122214,RICHLAND,36.2823020,-77.2797780,Active,24,1/1/93,1/1/23,2/27/59
1122332,PINE RIDGE PLACE,35.0056760,-80.2068140,Active,16,1/1/93,1/1/23,11/6/43
1010228,,35.9542210,-79.0999820,Active,2,1/9/13,1/9/23,1/9/23
1065171,,35.9077960,-79.0680050,Active,4,1/9/13,1/9/23,1/9/23
1062968,OAKLEY SQUARE APARTMENTS,36.0049000,-78.8679900,Active,100,1/1/03,1/31/23,1/1/33
1121455,Twin Oaks Apartments,35.4403200,-78.4334900,Active,41,9/1/83,1/31/23,6/15/40
1065201,RENTAL PROPERTY ACQUISITION,35.9221700,-79.0363360,Active,3,2/25/13,2/25/23,3/28/28
1126912,EVANS POINTE II APARTMENTS,34.1351600,-78.8699500,Active,32,2/27/03,2/27/23,8/17/34
1064498,KINSTON HOTEL,35.2651000,-77.5809000,Active,38,1/1/88,2/28/23,1/1/36
1063154,SANDY RIDGE APARTMENTS,34.3311200,-78.6887900,Active,26,4/1/83,3/1/23,2/1/34
1019412,GREEN ACRES APARTMENTS,35.7304880,-81.7794230,Active,30,3/25/13,3/24/23,3/24/23
1121859,PIREWAY PLACE,34.1434000,-78.8697300,Active,48,1/1/01,3/28/23,2/27/59
1019630,ARC/HDS FORSYTH CO GH #3,36.0400400,-80.2911800,Active,6,3/25/18,3/31/23,3/31/23
1019701,ARC/HDS ORANGE COUNTY GROUP HOME #1,35.9161800,-79.0882700,Active,6,3/31/18,3/31/23,3/31/23
1063407,ROBIN RIDGE APARTMENTS,35.3225900,-83.8040800,Active,20,5/1/83,4/1/23,1/1/35
1065046,HFNH INC - 1904 COLE MILL ROAD,36.0444080,-78.9639870,Active,10,4/23/13,4/23/23,4/23/23
1019340,ARC/HDS VANCE COUNTY GROUP HOME #2,36.3266700,-78.4411700,Active,6,4/23/18,4/30/23,4/30/23
1019400,ARC/HDS ALAMANCE CO GH #1,36.0902000,-79.2744900,Active,6,4/27/18,4/30/23,4/30/23
1019426,ROLLINS APARTMENTS,35.3034120,-81.0223930,Active,34,4/27/18,4/30/23,4/30/23
1019561,ARC/HDS ROWAN COUNTY GROUP HOME #2,35.6627300,-80.4930900,Active,6,4/30/18,4/30/23,4/30/23
1019597,ARC/HDS MONTGOMERY COUNTY GROUP HOME,35.3545100,-79.8844000,Active,7,4/29/18,4/30/23,4/30/23
1019601,ARC/HDS POLK COUNTY GROUP HOME,35.2264300,-82.2366700,Active,6,4/3/18,4/30/23,4/30/23
1019608,ARC/HDS GUILFORD CO GH #1,36.0429600,-79.8640500,Active,7,4/30/18,4/30/23,4/30/23
1019631,ARC/HDS FORSYTH CO GH #4,36.1433000,-80.2087600,Active,6,4/10/18,4/30/23,4/30/23
1019692,ARC/HDS ALAMANCE COUNTY GH #2,36.0936100,-79.4129100,Active,6,4/23/18,4/30/23,4/30/23
1019776,ARC/HDS CUMBERLAND CO GH #1,35.0903900,-78.9629700,Active,6,4/15/18,4/30/23,4/30/23
1116868,WILLOW OAKS LTD,35.8018100,-81.4214400,Active,34,8/12/83,4/30/23,6/4/33
1117351,ROCKY KNOLL APARTMENTS,35.3547700,-79.9036700,Active,44,6/10/81,4/30/23,5/29/31
1120353,GLEN APARTMENTS (THE),35.9039400,-80.5446300,Active,32,7/29/83,4/30/23,4/1/33
1019444,ARC/HDS CARTERET CO GH,34.7961100,-76.8698800,Active,6,5/2/18,5/1/23,5/1/23
1063070,CONWAY VILLAGE APARTMENTS,36.4465300,-77.2232100,Active,32,6/1/83,5/1/23,10/1/33
1063425,MADISON HILL APARTMENTS,34.3280500,-78.7038800,Active,35,12/1/83,5/1/23,3/27/34
1009747,TILGHMAN SQUARE II LIMITED PARTNERSHIP,35.3145910,-78.5878770,Active,23,5/29/03,5/29/23,5/29/23
1019420,ARC/HDS SURRY COUNTY GROUP HOME #3,36.5016500,-80.6033800,Active,7,5/11/18,5/31/23,5/31/23
1019549,ARC/HDS PERSON COUNTY GROUP HOME #1,36.3960500,-78.9815900,Active,6,5/4/18,5/31/23,5/31/23
1019581,ARC/HDS JOHNSTON GROUP HOME - SM,35.5115550,-78.3387540,Active,6,5/11/18,5/31/23,5/31/23
1019739,ARC/HDS DURHAM CO GH #5,36.0163600,-78.8547800,Active,6,5/19/18,5/31/23,5/31/23
1019751,ARC/HDS ROCKINGHAM COUNTY GROUP HOME #1,36.5042100,-79.7741700,Active,6,5/15/18,5/31/23,5/31/23
1019763,ARC/HDS CUMBERLAND CO GH #4,35.0993900,-78.9307600,Active,6,5/7/18,5/31/23,5/31/23
1019782,ARC/HDS JOHNSTON CO GROUP HOME- FO,35.4399900,-78.4235300,Active,6,5/11/18,5/31/23,5/31/23
1019784,ARC/HDS SAMPSON COUNTY GROUP HOME #1,34.7891500,-78.3941500,Active,6,5/20/18,5/31/23,5/31/23
1019796,ARC/HDS GASTON CO APARTMENTS,35.2584790,-81.1762140,Active,8,5/11/18,5/31/23,5/31/23
1115637,HERITAGE VILLAGE,35.3074600,-81.8599100,Active,24,8/30/82,5/31/23,8/17/32
1119961,MEADOWBROOK APARTMENTS,36.1289680,-77.4111620,Active,50,5/30/78,5/31/23,5/31/23
1063127,DARTMOUTH COURT APARTMENTS,36.0650700,-79.8581400,Active,28,1/1/84,6/1/23,2/28/37
1063383,GREEN HILL,35.8376340,-80.2496130,Active,35,11/1/83,6/1/23,6/30/39
1063391,GRANITE VILLAGE APARTMENTS,35.8016600,-81.4159700,Active,24,1/1/84,6/1/23,2/21/34
1004605,GRIER PARK APARTMENTS,35.1983300,-80.8048800,Active,50,3/1/84,6/26/23,11/1/23
1019609,ARC/HDS BEAUFORT CO GH #1,35.5448300,-77.0453200,Active,6,6/23/18,6/30/23,6/30/23
1019678,ARC/HDS HARNETT CO GH,35.5159200,-78.7435800,Active,6,7/1/18,6/30/23,6/30/23
1063302,LITTLE ROCK APARTMENTS,35.2092930,-80.9173870,Active,242,1/1/03,6/30/23,1/1/33
1107232,BRADFORD PLACE,35.5743250,-78.8024640,Active,64,1/1/96,6/30/23,1/1/26
1063343,LAURENCE MANOR APARTMENTS,36.0226800,-79.8290900,Active,32,8/1/83,7/1/23,7/1/41
1063924,SILVER SPRING APARTMENTS,35.8161900,-78.3327500,Active,33,1/1/02,7/10/23,1/1/32
1128138,,35.7766850,-78.6398470,Active,1,7/10/03,7/10/23,7/10/23
1009062,GOLDSBORO DEVELOPMENT CORPORATION,35.3736300,-77.9776630,Active,3,7/24/08,7/24/23,7/24/23
1019358,ARC/HDS CUMBERLAND CO GH #5,34.9736000,-78.9511900,Active,7,7/20/18,7/31/23,7/31/23
1019374,ARC/HDS SCOTLAND CO GH #1,34.7601400,-79.4634600,Active,7,7/22/18,7/31/23,7/31/23
1019575,ARC/HDS CLEVELAND CO GH,35.1854200,-81.5938200,Active,7,7/26/18,7/31/23,7/31/23
1019619,ARC/HDS WILSON COUNTY GROUP HOME #3,35.7378970,-77.9484110,Active,7,7/27/18,7/31/23,7/31/23
1019767,ARC/HDS CUMBERLAND CO GH #6,35.0245200,-78.8991300,Active,7,7/20/18,7/31/23,7/31/23
1019804,ARC/HDS SCOTLAND CO GH #2,34.7614910,-79.6134920,Active,7,7/22/18,7/31/23,7/31/23
1023231,WNC MADISON COUNTY GROUP HOME,35.8934900,-82.8343500,Active,7,2/2/90,7/31/23,10/1/28
1115677,MEADOWS THE,34.9938350,-79.2284820,Active,30,9/9/83,7/31/23,7/3/33
1063140,GATEWAY VILLAGE,36.0555500,-79.1090300,Active,64,9/1/83,8/1/23,3/31/37
1063252,BAY TREE APARTMENTS,35.5853400,-78.8047200,Active,50,9/1/83,8/1/23,5/1/54
1063298,LYNNHAVEN APARTMENTS,35.9739300,-78.8479000,Active,75,9/1/83,8/1/23,3/31/37
1063341,WALNUT WEST APARTMENTS,36.3072300,-76.2198500,Active,34,9/1/83,8/1/23,10/1/34
1063411,RICHMOND VILLAGE APARTMENTS,34.8965260,-79.6978480,Active,40,9/1/83,8/1/23,11/30/33
1063417,LIBERTY VILLAGE APARTMENTS,35.8505300,-79.5736500,Active,46,9/1/83,8/1/23,1/31/35
1063442,MEADOW WOODS APARTMENTS,34.5027620,-79.1094410,Active,50,9/1/83,8/1/23,8/1/34
1063468,WESTSIDE APARTMENTS,35.2639700,-80.9199300,Active,50,9/1/83,8/1/23,10/1/34
1065042,DENSON APARTMENTS,36.0219830,-78.9157730,Active,38,9/1/83,8/1/23,8/12/35
1124519,KINGS MILL,34.8020230,-76.8614020,Active,44,1/1/02,8/5/23,1/1/32
1063872,HUNT PARK APARTMENTS,36.1596570,-80.2819120,Active,60,1/1/01,8/15/23,1/1/31
1019442,ARC/HDS AVERY CO GH,36.0818700,-81.9320900,Active,7,8/2/18,8/31/23,8/31/23
1019448,ARC/HDS WILKES COUNTY GROUP HOME,36.1713900,-81.1469900,Active,6,8/21/18,8/31/23,8/31/23
1019452,ARC/HDS GRANVILLE CO GH,36.3169700,-78.6072400,Active,7,8/28/18,8/31/23,8/31/23
1019480,ARC/HDS EDGECOMBE/NASH GH #1,35.9293500,-77.7730900,Active,6,8/4/18,8/31/23,8/31/23
1019685,ARC/HDS BUNCOMBE CO ICF/MR,35.5766900,-82.5348700,Active,7,9/1/18,8/31/23,8/31/23
1116412,PHILLIPS VILLAGE,35.2351860,-81.6607370,Active,32,8/30/82,8/31/23,8/17/32
1063129,COTTONDALE APARTMENTS,35.3067300,-78.6090700,Active,24,10/1/83,9/1/23,3/1/42
1063196,SCOTLAND MANOR APARTMENTS,34.7707600,-79.4804900,Active,60,9/29/83,9/1/23,7/1/34
1063918,PERFECTION PARK SENIOR APARTMENTS,35.2788090,-81.0537820,Active,50,1/1/02,9/9/23,1/1/32
1011743,,35.2158680,-80.8670740,Active,4,9/10/08,9/10/23,9/10/23
1019396,ARC/HDS CATAWBA CO GH #1,35.5800700,-81.2031800,Active,7,9/9/18,9/30/23,9/30/23
1019410,ARC/HDS BURKE CO GH #1,35.7501590,-81.6743310,Active,6,9/23/18,9/30/23,9/30/23
1019551,ARC/HDS PERSON COUNTY GROUP HOME #2 (ICF/MR),36.4037400,-78.9868200,Active,6,9/29/18,9/30/23,9/30/23
1019599,ARC/HDS NEW VIEW APARTMENTS,35.2041800,-82.2367500,Active,8,9/10/18,9/30/23,9/30/23
1019611,ARC/HDS BEAUFORT CO GH #2,35.5432270,-77.0392710,Active,6,9/13/18,9/30/23,9/30/23
1019778,ARC/HDS RUTHERFORD COUNTY GROUP HOME #1,35.3345100,-81.8811800,Active,7,9/16/18,9/30/23,9/30/23
1063217,OAK VILLA APARTMENTS,35.3283400,-81.8656400,Active,25,9/29/18,9/30/23,9/30/23
1065199,,35.9656040,-79.0458010,Active,1,9/30/08,9/30/23,9/30/23
1008473,TWIN CEDARS II APARTMENTS,35.7569400,-81.2992800,Active,72,11/1/05,10/1/23,10/1/23
1063021,CARRIAGE HOUSE APARTMENTS,36.1709540,-77.6718530,Active,51,11/1/83,10/1/23,12/1/34
1063081,ARCADIA VILLAGE APARTMENTS,34.3757600,-78.3233300,Active,30,11/1/83,10/1/23,6/1/35
1063192,PINEWOOD APARTMENTS,35.3183100,-78.6258300,Active,60,11/1/83,10/1/23,5/1/42
1063207,TORHUNTA APARTMENTS,35.5397620,-77.9859700,Active,40,11/1/83,10/1/23,9/1/33
1063313,SOUTH VILLAGE APARTMENTS,36.4750200,-80.6146100,Active,40,11/1/83,10/1/23,12/1/34
1063333,VIRGINIA DARE APARTMENTS,36.2991400,-76.2205100,Active,68,11/1/83,10/1/23,5/1/36
1064944,OLDE NORTH VILLAGE,36.1545840,-80.2888300,Active,48,11/1/83,10/1/23,1/1/26
1008453,BALSAM GROVE APARTMENTS,35.2299300,-82.7373200,Active,40,1/1/84,10/17/23,12/1/36
1012770,,35.8162530,-78.3335120,Active,33,10/29/03,10/29/23,10/29/23
1019362,ARC/HDS ONSLOW COUNTY GROUP HOME #1,34.7460800,-77.3680200,Active,6,11/1/18,10/31/23,10/31/23
1019403,ARC/HDS DAVIE CO GH,35.9045900,-80.5447900,Active,7,10/27/18,10/31/23,10/31/23
1019424,ARC/HDS SURRY COUNTY GROUP HOME #1,36.4923710,-80.6029420,Active,6,10/21/18,10/31/23,10/31/23
1019577,ARC/HDS CHATHAM COUNTY GH #1,35.7284600,-79.4618100,Active,6,10/6/18,10/31/23,10/31/23
1019723,ARC/HDS GASTON CO GH #1,35.3948300,-81.3798400,Active,6,10/20/18,10/31/23,10/31/23
1019753,ARC/HDS PASQUOTANK COUNTY GROUP HOME,36.3061090,-76.2180050,Active,6,10/20/18,10/31/23,10/31/23
1065252,,36.0736710,-79.7581150,Active,6,11/6/13,11/6/23,11/6/23
1065044,,36.0057130,-78.8873530,Active,1,11/10/08,11/10/23,11/10/23
1128112,GRANT STATION APARTMENTS,35.2552760,-80.8788430,Active,12,11/15/18,11/15/23,11/15/23
1064081,SPAULDING WOODS II APARTMENTS,35.6644000,-82.0342100,Active,44,1/1/02,11/26/23,1/1/36
1019603,ARC/HDS CRAVEN CO GH #1,35.2992420,-77.1492150,Active,6,11/18/18,11/30/23,11/30/23
1019731,ARC/HDS CABARRUS CO GH #3,35.4220750,-80.5810800,Active,6,11/19/18,11/30/23,11/30/23
1062960,CALIFORNIA ARMS APARTMENTS,35.6683040,-82.0134350,Active,30,1/1/84,12/1/23,11/1/34
1063076,CRESTVIEW APARTMENTS,36.0126200,-78.9415700,Active,65,1/1/84,12/1/23,3/31/36
1064333,JFK TOWERS,36.0645070,-78.9047360,Active,178,1/1/84,12/1/23,12/31/39
1118428,RAINTREE APARTMENTS,34.8355740,-78.0286470,Active,24,1/1/03,12/30/23,7/17/33
1120446,CREEKRIDGE APARTMENTS,35.7731900,-78.2085900,Active,25,1/1/02,12/30/23,12/31/32
1019432,ARC/HDS NASH COUNTY GROUP HOME,35.9701200,-77.9566200,Active,7,12/7/18,12/31/23,12/31/23
1019595,ARC/HDS BURKE CO GH #2,35.9294700,-81.1789000,Active,6,12/9/18,12/31/23,12/31/23
1019612,ARC/HDS HAYWOOD CO GH #2,35.4709500,-82.9794800,Active,7,12/22/18,12/31/23,12/31/23
1062998,ARC/HDS CHOWAN CO GH #1,36.0701200,-76.6148800,Active,6,12/20/18,12/31/23,12/31/23
1063049,ARC/HDS STOKES COUNTY GH #2,36.2798400,-80.3850200,Active,6,12/30/18,12/31/23,12/31/23
1115286,VALDESE VILLAGE APARTMENTS,35.7367700,-81.5450900,Active,34,3/5/84,12/31/23,1/1/35
1008459,ROCHELLE MANOR APARTMENTS,35.9904740,-78.8496120,Active,75,2/1/84,1/1/24,2/29/28
1063696,1005 PARKTHROUGH ST,35.7857300,-78.7847500,Inconclusive,1,1/1/94,1/1/24,1/1/24
1063698,1006 PARKTHROUGH ST,35.7857300,-78.7847500,Inconclusive,1,1/1/94,1/1/24,1/1/24
1063700,1007 PARKTHROUGH ST,35.7857300,-78.7847500,Inconclusive,1,1/1/94,1/1/24,1/1/24
1063703,1009 PARKTHROUGH ST,35.7857300,-78.7847500,Inconclusive,1,1/1/94,1/1/24,1/1/24
1063705,1010 & 1012 HARRIET STREET,36.3126050,-78.3960580,Active,2,1/1/94,1/1/24,1/1/24
1063707,1010 PARKTHROUGH ST,35.7857300,-78.7847500,Inconclusive,1,1/1/94,1/1/24,1/1/24
1063709,1011 PARKTHROUGH ST,35.7857300,-78.7847500,Inconclusive,1,1/1/94,1/1/24,1/1/24
1063713,1013 PARKTHROUGH ST,35.7857300,-78.7847500,Inconclusive,1,1/1/94,1/1/24,1/1/24
1063717,1015 PARKTHROUGH ST,35.7857300,-78.7847500,Inconclusive,1,1/1/94,1/1/24,1/1/24
1063719,1016 PARKTHROUGH ST,35.7857300,-78.7847500,Inconclusive,1,1/1/94,1/1/24,1/1/24
1063725,1019 PARKTHROUGH ST,35.7857300,-78.7847500,Inconclusive,1,1/1/94,1/1/24,1/1/24
1063726,1027 & 1029 MAPLE STREET,36.3174100,-78.4049200,Active,2,1/1/94,1/1/24,1/1/24
1063727,103-106 HORSE CREEK ROAD,36.4121630,-78.1548170,Inconclusive,4,1/1/94,1/1/24,1/1/24
1063728,1031 & 1033 MAPLE STREET,36.3174100,-78.4049200,Active,2,1/1/94,1/1/24,1/1/24
1063730,1116 MARTIN ST,36.0582900,-79.7824800,Inconclusive,1,1/1/94,1/1/24,1/1/24
1063731,B&B PROPERTIES,35.7452300,-77.9149500,Inconclusive,4,1/1/94,1/1/24,1/1/24
1063732,1608 PECAN CT N,35.7453900,-77.9148500,Inconclusive,4,1/1/94,1/1/24,1/1/24
1063733,1802 RUFFLELEAF CIR SE,35.7046900,-77.8943200,Inconclusive,1,1/1/94,1/1/24,1/1/24
1063734,1921 TISCHER RD,35.7463400,-78.6740600,Active,1,1/1/94,1/1/24,1/1/24
1063736,206 & 208 SWAIN STREET,36.3204600,-78.3912400,Active,2,1/1/94,1/1/24,1/1/24
1063737,3410 CALUMET PL,36.0809100,-79.7491500,Active,3,1/1/94,1/1/24,1/1/24
1063739,515 & 517 ORANGE ST,36.3016500,-78.5874400,Active,2,1/1/94,1/1/24,1/1/24
1063740,617 CAROLINA AVE,35.7833000,-78.7166200,Active,1,1/1/94,1/1/24,1/1/24
1063741,619 CAROLINA AVE,35.7833000,-78.7166200,Active,1,1/1/94,1/1/24,1/1/24
1063742,621 CAROLINA AVE,35.7833000,-78.7166200,Active,1,1/1/94,1/1/24,1/1/24
1063743,625 CAROLINA AVE,35.7833000,-78.7166200,Inconclusive,1,1/1/94,1/1/24,1/1/24
1063744,697 & 699 BECK AVENUE,36.3348600,-78.4054200,Active,2,1/1/94,1/1/24,1/1/24
1063745,728 ROBERSON ST,36.3333900,-78.3893400,Active,1,1/1/94,1/1/24,1/1/24
1063746,734 S SCIENTIFIC ST,35.9687800,-79.9544400,Active,1,1/1/94,1/1/24,1/1/24
1063747,736 S SCIENTIFIC ST,35.9687800,-79.9544400,Inconclusive,1,1/1/94,1/1/24,1/1/24
1063748,8253 MERRIWEATHER CIR,35.8855600,-78.5579300,Inconclusive,1,1/1/94,1/1/24,1/1/24
1063749,8255 MERRIWEATHER CIR,35.8855600,-78.5579300,Inconclusive,1,1/1/94,1/1/24,1/1/24
1063750,8257 MERRIWEATHER CIR,35.8855600,-78.5579300,Inconclusive,1,1/1/94,1/1/24,1/1/24
1063751,8259 MERRIWEATHER CIR,35.8855600,-78.5579300,Inconclusive,1,1/1/94,1/1/24,1/1/24
1063752,8261 MERRIWEATHER CIR,35.8855600,-78.5579300,Active,1,1/1/94,1/1/24,1/1/24
1063753,8263 MERRIWEATHER CIR,35.8855600,-78.5579300,Inconclusive,1,1/1/94,1/1/24,1/1/24
1063755,936A & 936B SOUTH MAIN STREET,36.0887900,-78.3085400,Active,2,1/1/94,1/1/24,1/1/24
1063756,BERKSHIRE DOWNS II,35.8855600,-78.5579300,Active,1,1/1/94,1/1/24,1/1/24
1063792,BERRYMAN SQUARE,36.1248100,-79.7876600,Active,44,1/1/94,1/1/24,1/1/24
1063794,BURNSIDE VILLAGE APARTMENTS,35.4177510,-77.5902630,Active,16,1/1/94,1/1/24,9/12/38
1063796,CARVER CREEK APARTMENTS,36.0439500,-78.8914000,Active,48,1/1/94,1/1/24,12/10/29
1063798,DOBBINS HILL II,35.9442200,-79.0144300,Active,55,1/1/94,1/1/24,1/1/38
1063800,HARAMBEE SQUARE APARTMENTS,35.9412800,-77.7949300,Active,24,1/1/94,1/1/24,2/27/29
1063801,HORSE CREEK APARTMENTS,36.4118400,-78.1540900,Active,4,1/1/94,1/1/24,1/1/24
1063804,WOODFIELD SUBDIVISION: LOT 6 SECTION 4,35.7046900,-77.8943200,Inconclusive,1,1/1/94,1/1/24,1/1/24
1063805,WOODFIELD SUBDIVISION: LOT 7 SECTION 4,35.7046900,-77.8943200,Active,1,1/1/94,1/1/24,1/1/24
1063806,LOVETT SQUARE,35.9856400,-78.8899800,Active,60,1/1/94,1/1/24,1/1/24
1063807,MAPLE STREET APARTMENTS,36.2996300,-78.5912920,Active,2,1/1/94,1/1/24,1/1/24
1063808,MARTIN DUPLEX #2,35.4099600,-81.3664800,Active,2,1/1/94,1/1/24,1/1/24
1063809,OXFORD COMMONS ELDERLY HOUSING,36.0419100,-78.8889200,Active,102,1/1/94,1/1/24,1/1/24
1063811,SEMINARY LANE TOWNHOMES,35.7414400,-78.6292400,Inconclusive,4,1/1/94,1/1/24,1/1/24
1063813,WEST PARK ST APARTMENTS,35.7851100,-78.7834300,Active,2,1/1/94,1/1/24,1/1/24
1063814,WILLOW POND APARTMENTS,34.2350520,-77.9016560,Active,40,1/1/94,1/1/24,7/1/57
1064386,ORCHARD VIEW APARTMENTS,35.1623120,-83.3963700,Active,48,1/1/94,1/1/24,1/1/24
1064490,WHITTED FOREST,36.0865900,-79.1178900,Inconclusive,36,1/1/94,1/1/24,1/1/24
1064584,CHARLES PLACE,35.2756250,-81.5652880,Inconclusive,40,1/1/94,1/1/24,1/1/24
1064684,HARNETT MANOR,35.3909300,-78.8604800,Inconclusive,2,1/1/94,1/1/24,1/1/24
1064783,THE BELVEDERE APARTMENTS,35.2637500,-81.1678400,Active,31,1/1/94,1/1/24,1/1/24
1064852,MARTIN DUPLEX #1,35.4109630,-81.3666850,Active,2,1/1/94,1/1/24,1/1/24
1064933,CAROLINA WOODS APARTMENTS II,36.1218400,-79.7511200,Active,40,1/1/94,1/1/24,1/1/24
1102085,WOODFIELD SUBDIVISION: LOT 1 SECTION 4,35.7038800,-77.8956000,Active,1,1/1/94,1/1/24,1/1/24
1102087,WOODFIELD SUBDIVISION: LOT 2 SECTION 4,35.7038800,-77.8956000,Active,1,1/1/94,1/1/24,1/1/24
1106449,JUNIPER POINT APARTMENTS,35.4634580,-79.1749030,Active,56,1/1/94,1/1/24,1/1/24
1106459,MAPLE RIDGE APARTMENTS,35.6515460,-78.8226720,Active,50,1/1/94,1/1/24,1/1/24
1106562,WELLINGTON PLACE,34.1975900,-77.9249270,Active,34,1/1/94,1/1/24,1/1/24
1106849,NEW GARDEN PLACE,36.0963700,-79.7538700,Active,76,1/1/94,1/1/24,1/1/24
1107105,WALNUT WOODS APARTMENTS,35.7653600,-78.5809300,Active,36,1/1/94,1/1/24,1/1/24
1107307,TIMBERWOOD APARTMENTS PHASE II,35.4916990,-79.1799010,Active,36,1/1/94,1/1/24,1/1/24
1107361,CAROLINA TERRACE APARTMENTS,35.7483150,-78.6603770,Active,28,1/1/94,1/1/24,1/1/24
1115554,PINE RIDGE APARTMENTS,36.0829000,-81.9329500,Active,32,1/1/94,1/1/24,11/10/43
1115646,ELM TREE APARTMENTS,34.4826200,-78.6576100,Active,20,1/1/94,1/1/24,8/29/41
1115725,THE MEADOWS APARTMENTS,35.5219200,-78.2931200,Active,114,3/1/78,1/1/24,11/23/48
1115948,BUNN MANOR APARTMENTS,35.9549000,-78.2539000,Active,24,1/1/94,1/1/24,3/20/44
1116482,ALBEMARLE VILLAGE APARTMENTS,36.1822200,-76.4646800,Active,36,1/1/94,1/1/24,3/31/39
1117275,MAPLE RIDGE APARTMENTS,36.2703100,-80.8409100,Active,38,1/1/94,1/1/24,1/9/44
1117542,AUSTIN MANOR,35.5101600,-78.3465500,Active,48,4/22/85,1/1/24,3/22/58
1117612,CHADWICK APARTMENTS,36.5073700,-79.7786000,Active,48,1/1/94,1/1/24,3/14/48
1117659,COBBLESTONE APARTMENTS,35.5951800,-78.8025200,Active,33,1/1/94,1/1/24,5/5/44
1117682,RANSOM STREET APARTMENTS,36.1294500,-81.6731900,Active,13,1/1/94,1/1/24,10/20/44
1117745,MCLURD MANOR,35.3585300,-81.0829400,Active,34,1/1/94,1/1/24,5/31/44
1118157,ROBERSONVILLE MANOR,35.8221250,-77.2624590,Active,12,1/1/94,1/1/24,9/24/44
1118201,BRITISH WOODS APARTMENTS,36.4374100,-77.6511000,Active,26,1/1/94,1/1/24,8/17/44
1118452,PINE GATE APARTMENTS,36.2919730,-76.9956490,Active,56,1/1/94,1/1/24,3/22/58
1119198,WOODFIELD APARTMENTS,34.4847700,-79.1131700,Active,32,1/1/94,1/1/24,8/28/41
1119378,RIVER BEND APARTMENTS,34.3112900,-79.0282600,Active,16,1/1/94,1/1/24,12/31/43
1119817,CLAYTON MANOR APARTMENTS,35.6371200,-78.4477500,Active,56,12/30/93,1/1/24,10/29/39
1119947,RIVERSIDE APARTMENTS,35.4658100,-81.2653100,Active,34,1/1/94,1/1/24,9/28/44
1120272,ROWLAND MANOR APARTMENTS,34.5321410,-79.2896220,Active,24,12/17/93,1/1/24,7/22/42
1120393,PINE KNOLL MANOR II,35.5201500,-78.3628700,Active,48,11/27/84,1/1/24,12/17/43
1120645,BRENTWOOD APARTMENTS,34.9588000,-77.9599300,Active,24,1/1/94,1/1/24,5/12/44
1120912,GARDEN TERRACE APARTMENTS,36.4823400,-80.6032700,Active,36,1/1/94,1/1/24,7/18/43
1122322,THE VILLAGE APARTMENTS,35.3242470,-78.6069110,Active,34,3/1/80,1/1/24,11/23/48
1151338,WOODFIELD SUBDIVISION: LOT 4 SECTION 4,35.7038800,-77.8956000,Inconclusive,1,1/1/94,1/1/24,1/1/24
1064680,LAGRANGE VILLAS LIMITED PARTNERSHIP,35.3097000,-78.6082000,Active,23,1/5/04,1/5/24,1/5/24
1064993,BOH INC-RENTALS,35.9907820,-78.9166270,Active,2,3/24/11,1/10/24,3/24/26
1146693,,35.4827000,-80.6346650,Active,1,1/11/19,1/11/24,1/11/24
1063113,ARC/HDS DURHAM CO GH #3,35.9165500,-78.9026600,Active,6,1/20/19,1/19/24,1/19/24
1117781,OXFORD PLACE APARTMENTS,34.9153380,-77.7683560,Active,24,1/1/03,1/28/24,9/21/33
1019368,ARC/HDS CABARRUS CO GH #1,35.4944860,-80.6051340,Active,6,1/28/19,1/31/24,1/31/24
1062976,ARC/HDS ROBESON COUNTY APARTMENTS,34.7310800,-79.3588000,Active,9,1/6/19,1/31/24,1/31/24
1063015,ARC/HDS STOKES CO GH #3(ICF/MR),36.2807400,-80.3664500,Active,6,1/31/19,1/31/24,1/31/24
1063082,ARC/HDS DURHAM CO GH #4,35.9938900,-78.8527900,Active,6,1/5/19,1/31/24,1/31/24
1063114,ARC/HDS MOORE COUNTY GROUP HOME #2,35.4389100,-79.5848800,Active,6,1/13/19,1/31/24,1/31/24
1063250,ARC/HDS HALIFAX CO GH #2,36.4436700,-77.6326500,Active,6,1/20/19,1/31/24,1/31/24
1118406,WINDSOR OAKS,35.9857430,-76.9569860,Active,50,3/14/78,1/31/24,3/1/28
1118499,LAKE VIEW APARTMENTS,35.5225100,-82.8267400,Active,56,8/24/79,1/31/24,12/16/32
1004881,HOLLY RIDGE APARTMENTS,34.6150500,-79.0233100,Active,110,3/1/84,2/1/24,9/30/33
1063228,NORTHWOODS APARTMENTS,34.5605600,-77.9220000,Active,50,7/1/84,2/1/24,5/1/42
1062996,ARC/HDS CATAWBA CO GH #2,35.7043490,-81.2259880,Active,6,2/3/19,2/28/24,2/28/24
1019460,ARC/HDS WAKE COUNTY GROUP HOME #2,35.8460400,-78.5973100,Active,7,2/25/19,2/29/24,2/29/24
1019691,ARC/HDS YADKIN COUNTY GH,36.2291500,-80.7075300,Active,6,2/19/19,2/29/24,2/29/24
1062930,ARC/HDS PERSON COUNTY GROUP HOME #3,36.3853930,-78.9915940,Active,6,2/21/19,2/29/24,2/29/24
1062932,ARC/HDS ROCKINGHAM COUNTY GROUP HOME #2,36.3370700,-79.6864100,Active,6,2/22/19,2/29/24,2/29/24
1062936,ARC/HDS ALAMANCE CO ICF/MR GH #1,36.0736540,-79.3853220,Active,7,2/21/19,2/29/24,2/29/24
1062942,ARC/HDS PIEDMONT ICF/MR GROUP HOME,35.4623400,-80.6046500,Active,6,2/15/19,2/29/24,2/29/24
1062952,ARC/HDS PITT COUNTY ICF/MR GROUP HOME,35.3825900,-77.4214700,Active,7,2/24/19,2/29/24,2/29/24
1062956,ARC/HDS ALAMANCE CO ICF/MR GH #2,36.0731300,-79.4063800,Active,7,2/9/19,2/29/24,2/29/24
1063007,ARC/HDS CRAVEN CO GH #2,35.1203000,-77.0702200,Active,6,2/23/19,2/29/24,2/29/24
1063057,ARC/HDS UNION COUNTY GROUP HOME #1,34.9792100,-80.4508200,Active,6,2/28/19,2/29/24,2/29/24
1063224,ARC/HDS GUILFORD CO GH #3,36.0931300,-79.8747200,Active,6,2/9/19,2/29/24,2/29/24
1128123,,35.3838420,-77.9924570,Active,1,3/3/09,3/3/24,3/3/24
1004877,LUTHERHAUS OF LINCOLNTON,35.4684000,-81.2443800,Active,30,3/14/13,3/13/24,6/1/34
1065257,WALLACE TOWNHOMES,35.1973650,-80.8071440,Active,34,3/13/14,3/13/24,3/13/24
1064979,,35.3991730,-80.5754570,Active,11,3/14/14,3/14/24,3/14/24
1063138,WNC COMMUNITY HOMES #1,35.4700100,-81.2259700,Active,7,3/2/90,3/27/24,7/1/29
1063013,ARC/HDS UNION COUNTY GROUP HOME #2,34.9911420,-80.4684920,Active,7,3/23/19,3/31/24,3/31/24
1063117,ARC/HDS FORSYTH CO ICF/MR,36.1775200,-80.2287200,Active,6,3/2/19,3/31/24,3/31/24
1063323,ARC/HDS GUILFORD CO GH #2,35.9930400,-79.9649600,Active,6,3/2/19,3/31/24,3/31/24
1119266,PINE GROVE APARTMENTS,35.5857500,-77.5892900,Active,174,11/30/71,3/31/24,2/22/30
1065062,LORIE VILLAGE APTS:RENTAL,35.4078000,-80.8399100,Active,4,4/1/04,4/1/24,4/1/24
1064345,ARC/HDS ALLEGHANY CO GH,36.5064610,-81.1340600,Active,6,4/11/19,4/10/24,4/10/24
1064162,CMHP ELDERLY APARTMENTS IN BELMONT,35.2293380,-80.8199280,Active,6,4/15/04,4/15/24,4/15/24
1063195,BATTERY PARK APARTMENTS,35.5964600,-82.5568700,Active,122,6/1/81,4/20/24,1/1/35
1063928,BLANTON GREEN II APARTMENTS,35.0931280,-78.9420090,Active,48,1/1/03,4/21/24,1/1/33
1064875,CROSSWINDS GREENS,35.0143120,-78.9205380,Active,48,4/27/04,4/27/24,3/15/25
1063868,HAYMOUNT MANOR APARTMENTS,35.0681200,-78.9130700,Active,48,1/1/01,4/28/24,1/1/31
1063226,ARC/HDS GREENE CO APARTMENTS,35.4460920,-77.6661370,Active,8,4/28/19,4/30/24,4/30/24
1063306,ARC/HDS ALEXANDER CO APARTMENTS,35.9168900,-81.1647800,Active,8,4/21/19,4/30/24,4/30/24
1063936,COMPTON PLACE,35.6045500,-82.6151600,Active,40,1/1/03,4/30/24,1/1/33
1063108,GREENTREE VILLAGE APARTMENTS,35.6028000,-77.3377300,Active,41,6/1/84,5/1/24,2/28/38
1063466,ALAMANCE PLAZA,36.0920800,-79.4387100,Active,76,6/1/84,5/1/24,11/30/36
1111095,TRENT RIVER APARTMENTS,35.0663870,-77.3649940,Active,25,1/1/03,5/3/24,11/18/33
1116667,SPRINGWOOD APARTMENTS,34.9039200,-77.5414300,Active,25,1/1/03,5/3/24,10/21/33
1064192,BLANTON GREEN APARTMENTS,35.0934500,-78.9420500,Active,48,1/1/00,5/5/24,8/10/30
1064204,BLANTON GREEN PHASE II,35.0923300,-78.9410400,Active,32,5/5/04,5/5/24,5/5/24
1064873,HAYMOUNT MANOR ELDERLY HOUSING DEVELOP,35.0726380,-78.8819330,Active,48,5/5/04,5/5/24,5/5/24
1064877,ROSEHILL WEST APARTMENTS,35.1109660,-78.9116290,Active,76,1/1/02,5/5/24,1/1/32
1064670,HILLSIDE COMMONS APARTMENTS,35.3279700,-82.4781800,Active,36,5/10/04,5/10/24,5/10/24
1116319,HUNTERS GLEN APARTMENTS,35.2195800,-79.3960000,Active,50,4/8/93,5/18/24,1/1/25
1064656,RENAISSANCE COMMONS,36.2894200,-76.2346400,Active,48,1/1/03,5/26/24,1/1/33
1063010,ARC/HDS STOKES CO APARTMENTS,36.3008200,-80.1369400,Active,8,5/26/19,5/31/24,5/31/24
1063118,ARC/HDS MCDOWELL CO APARTMENTS,35.6929400,-81.9944280,Active,8,5/12/19,5/31/24,5/31/24
1063301,SUMMIT VILLAGE APARTMENTS,35.7870000,-80.9081800,Active,80,5/2/19,5/31/24,5/31/24
1063345,ALPHA ARMS APARTMENTS,35.4105900,-77.9816900,Active,104,4/1/74,5/31/24,6/1/52
1064419,ORCHARD PARK APARTMENTS,35.2356500,-80.8482000,Active,42,2/1/77,5/31/24,5/31/24
1065356,,35.5976190,-80.8044490,Active,1,6/1/04,6/1/24,6/1/24
1063854,THE BUNGALOWS,35.4985580,-80.8565810,Active,32,1/1/00,6/2/24,1/1/30
1064165,GOLFVIEW APARTMENTS,34.9627300,-78.9709630,Active,48,1/1/97,6/14/24,3/1/55
1064900,HILLSIDE COMMONS LIMITED PARTNERSHIP,35.3179680,-82.4638020,Active,36,6/22/04,6/22/24,6/22/24
1124615,CHESTNUT HILLS APARTMENTS,35.7822070,-78.7276920,Active,50,6/25/04,6/25/24,6/25/24
1063944,LEGION MANOR APARTMENTS,34.9950100,-78.9207400,Active,44,1/1/03,6/30/24,1/1/33
1065229,,35.2620530,-80.8509830,Active,12,7/8/14,7/8/24,7/8/24
1064255,BERKELEY SPRING APARTMENTS,35.8599400,-78.6491000,Active,36,1/1/03,7/15/24,1/1/33
1062934,ARC/HDS PAMLICO COUNTY GROUP HOME,35.0854000,-76.8457000,Active,6,7/7/19,7/31/24,7/31/24
1062988,ARC/HDS PERSON COUNTY GROUP HOME #4,36.3882400,-78.9861800,Active,7,7/21/19,7/31/24,7/31/24
1062992,ARC/HDS CHEROKEE/CLAY CO GH,35.0473600,-83.8186000,Active,7,7/25/19,7/31/24,7/31/24
1010833,,35.4997650,-80.8527790,Active,4,8/13/04,8/13/24,8/13/24
1062938,ARC/HDS ROBESON COUNTY GROUP HOME #2,34.7314300,-79.3557200,Active,7,9/1/19,8/31/24,8/31/24
1062964,ARC/HDS CASWELL COUNTY GH #2,36.4114560,-79.3486300,Active,7,8/29/19,8/31/24,8/31/24
1063092,ARC/HDS CASWELL CO GH #1,36.4497960,-79.2776180,Active,7,8/22/19,8/31/24,8/31/24
1063187,TOPEKA HEIGHTS,35.0107500,-78.9167600,Active,150,6/1/74,8/31/24,7/1/56
1063204,ARC/HDS LENOIR COUNTY ICF/MR GROUP HOME,35.2894490,-77.5934810,Active,6,8/31/19,8/31/24,8/31/24
1063433,ARC/HDS HAYWOOD CO GH,35.5053040,-82.9683560,Active,6,8/29/19,8/31/24,8/31/24
1063912,LIFE HOUSE APARTMENTS,35.5112000,-82.5217100,Active,20,1/1/02,9/15/24,1/1/32
1064826,ASHEVILLE VOA ELDERLY HOUSING,35.5299240,-82.5213270,Active,50,9/15/04,9/15/24,9/15/24
1063946,LENNOX CHASE,35.7464700,-78.6776900,Active,37,1/1/03,9/22/24,1/1/33
1063006,ARC/HDS CUMBERLAND CO GH #2,35.1096000,-78.8725900,Active,7,9/11/19,9/30/24,9/30/24
1063008,ARC/HDS SANDHILLS ICF/MR GROUP HOME,34.9327600,-79.7491200,Active,6,9/21/19,9/30/24,9/30/24
1063128,ARC/HDS DAVIDSON CO GH,35.8183200,-80.2502600,Active,6,10/1/19,9/30/24,9/30/24
1063197,ARC/HDS WAYNE COUNTY GROUP HOME,35.1998600,-78.0701600,Active,7,9/12/19,9/30/24,9/30/24
1063234,ARC/HDS HERTFORD CO GH #2,36.2817120,-76.9815670,Active,7,9/20/19,9/30/24,9/30/24
1063275,ASHBROOKE APARTMENTS,35.2994100,-78.6039400,Active,52,9/30/19,9/30/24,9/30/24
1063296,ARC/HDS GUILFORD CO GH #4,35.9760950,-79.9511390,Active,6,9/18/19,9/30/24,9/30/24
1064331,ARC/HDS NORTHAMPTON COUNTY GROUP HOME,36.3273020,-77.2177680,Active,7,9/7/19,9/30/24,9/30/24
1064844,JACKSON TERRACE II,35.3555240,-79.4206600,Active,22,1/1/00,10/4/24,1/1/30
1064861,CROSSWINDS GREEN II APARTMENTS LIMITED PARTNER,34.9285470,-78.9186170,Active,48,10/4/04,10/4/24,10/4/24
1065483,,35.9531050,-77.7950640,Active,1,10/21/14,10/21/24,10/21/24
1010909,WINGATE AVENUE,35.2157700,-80.9069500,Active,1,1/1/88,10/28/24,10/28/24
1063162,WNC AUTISTIC GROUP HOME,35.5796200,-82.5614900,Active,7,1/13/86,10/31/24,11/1/24
1062984,ARC/HDS SMOKY MOUNTAIN ICF/MR GROUP HOME,35.3776300,-83.2279000,Active,7,11/6/19,11/30/24,11/30/24
1063077,ARC/HDS SURRY COUNTY GROUP HOME #2,36.2476900,-80.8644300,Active,6,11/2/19,11/30/24,11/30/24
1063088,ARC/HDS BRUNSWICK COUNTY GH #1,33.9766500,-78.3851800,Active,7,11/17/19,11/30/24,11/30/24
1063132,ARC/HDS FORSYTH CO GH #2,36.0524400,-80.2380600,Active,6,11/13/19,11/30/24,11/30/24
1063312,ARC/HDS ASHE CO GH,36.4186000,-81.4672400,Active,7,11/14/19,11/30/24,11/30/24
1065469,,35.9414980,-77.7746380,Active,1,12/6/14,12/6/24,12/6/24
1065475,,35.9417380,-77.7744550,Active,8,12/6/14,12/6/24,6/22/25
1009988,,35.6625370,-81.2394230,Active,6,12/29/04,12/29/24,12/29/24
1063022,ARC/HDS DURHAM CO GH #2,36.0650200,-78.8991600,Active,6,12/19/19,12/31/24,12/31/24
1063480,ARC/HDS IREDELL COUNTY GROUP HOME,35.7948100,-80.8997500,Active,6,12/11/19,12/31/24,12/31/24
1063494,ARC/HDS MACON COUNTY GROUP HOME,35.1855100,-83.3859600,Active,7,12/7/19,12/31/24,12/31/24
1064343,ARC/HDS HARNETT CO GH #3,35.4059980,-78.6666750,Active,7,12/29/19,12/31/24,12/31/24
1063815,1700 ALICE AVE,36.0506500,-79.7560100,Active,1,1/1/95,1/1/25,1/1/25
1063816,1702 ALICE AVE,36.0506500,-79.7560100,Active,1,1/1/95,1/1/25,1/1/25
1063818,223 A&B MAPLE DRIVE,36.3003800,-78.5913200,Active,2,1/1/95,1/1/25,1/1/25
1063823,HEATHERBROOK,35.8170900,-78.5761500,Inconclusive,1,1/1/95,1/1/25,1/1/25
1063825,HEATHERBROOK,35.8170900,-78.5761500,Inconclusive,1,1/1/95,1/1/25,1/1/25
1063827,HEATHERBROOK,35.8170900,-78.5761500,Inconclusive,1,1/1/95,1/1/25,1/1/25
1063829,HEATHERBROOK,35.8170900,-78.5761500,Inconclusive,1,1/1/95,1/1/25,1/1/25
1063831,HEATHERBROOK,35.8170900,-78.5761500,Inconclusive,1,1/1/95,1/1/25,1/1/25
1063833,HEATHERBROOK,35.8170900,-78.5761500,Inconclusive,1,1/1/95,1/1/25,1/1/25
1063835,HEATHERBROOK,35.8170900,-78.5761500,Inconclusive,1,1/1/95,1/1/25,1/1/25
1063837,HEATHERBROOK,35.8170900,-78.5761500,Inconclusive,1,1/1/95,1/1/25,1/1/25
1063839,HEATHERBROOK,35.8169600,-78.5768300,Inconclusive,1,1/1/95,1/1/25,1/1/25
1063841,HEATHERBROOK,35.8169600,-78.5768300,Inconclusive,1,1/1/95,1/1/25,1/1/25
1063843,HEATHERBROOK,35.8169600,-78.5768300,Inconclusive,1,1/1/95,1/1/25,1/1/25
1063845,HEATHERBROOK,35.8169600,-78.5768300,Inconclusive,1,1/1/95,1/1/25,1/1/25
1063847,HEATHERBROOK,35.8169600,-78.5768300,Inconclusive,1,1/1/95,1/1/25,1/1/25
1063849,HEATHERBROOK,35.8169600,-78.5768300,Inconclusive,1,1/1/95,1/1/25,1/1/25
1063851,HEATHERBROOK,35.8169600,-78.5768300,Inconclusive,1,1/1/95,1/1/25,1/1/25
1063853,HEATHERBROOK,35.8169600,-78.5768300,Inconclusive,1,1/1/95,1/1/25,1/1/25
1063857,HEATHERBROOK,35.8169600,-78.5768300,Inconclusive,1,1/1/95,1/1/25,1/1/25
1063859,HEATHERBROOK,35.8169600,-78.5768300,Inconclusive,1,1/1/95,1/1/25,1/1/25
1063861,2926 FAVERSHAM PL,35.8176400,-78.5767500,Inconclusive,1,1/1/95,1/1/25,1/1/25
1063865,HEATHERBROOK,35.8176400,-78.5767500,Inconclusive,1,1/1/95,1/1/25,1/1/25
1063867,HEATHERBROOK,35.8176400,-78.5767500,Inconclusive,1,1/1/95,1/1/25,1/1/25
1063869,HEATHERBROOK,35.8176400,-78.5767500,Inconclusive,1,1/1/95,1/1/25,1/1/25
1063871,HEATHERBROOK,35.8176400,-78.5767500,Inconclusive,1,1/1/95,1/1/25,1/1/25
1063873,HEATHERBROOK,35.8176400,-78.5767500,Inconclusive,1,1/1/95,1/1/25,1/1/25
1063875,HEATHERBROOK,35.8176400,-78.5767500,Inconclusive,1,1/1/95,1/1/25,1/1/25
1063877,HEATHERBROOK,35.8181700,-78.5765400,Inconclusive,1,1/1/95,1/1/25,1/1/25
1063879,HEATHERBROOK,35.8181700,-78.5765400,Inconclusive,1,1/1/95,1/1/25,1/1/25
1063881,HEATHERBROOK,35.8181700,-78.5765400,Inconclusive,1,1/1/95,1/1/25,1/1/25
1063883,3837 W AVE,36.1432410,-79.8709220,Active,1,1/1/95,1/1/25,1/1/25
1063885,3860 GREEN POINT DR,36.0406700,-79.8586300,Active,1,1/1/95,1/1/25,1/1/25
1063887,508 & 510 CHARLES STREET,36.3243400,-78.3954900,Active,4,1/1/95,1/1/25,1/1/25
1063891,623 CAROLINA AVE,35.7833000,-78.7166200,Active,1,1/1/95,1/1/25,1/1/25
1063895,8103 FARMLEA CIR,35.8838900,-78.5587100,Inconclusive,1,1/1/95,1/1/25,1/1/25
1063897,8105 FARMLEA CIR,35.8838900,-78.5587100,Inconclusive,1,1/1/95,1/1/25,1/1/25
1063899,8107 FARMLEA CIR,35.8838900,-78.5587100,Active,1,1/1/95,1/1/25,1/1/25
1063901,8109 FARMLEA CIR,35.8838900,-78.5587100,Active,1,1/1/95,1/1/25,1/1/25
1063903,APPLE & PEACH HOUSING,36.3389500,-78.3925600,Active,2,1/1/95,1/1/25,1/1/25
1063905,CARMEL RIDGE,36.3020000,-78.3793700,Active,22,1/1/95,1/1/25,1/1/25
1063911,CLARK STREET DUPLEX,36.3265400,-78.3948800,Inconclusive,2,1/1/95,1/1/25,1/1/25
1063913,815 CLAY ST,35.7915500,-78.6509100,Inconclusive,4,1/1/95,1/1/25,1/1/25
1063915,CLEMENT AVE APARTMENTS A,36.3182800,-78.5974500,Inconclusive,2,1/1/95,1/1/25,1/1/25
1063917,CLEMENT AVE APARTMENTS B,36.3186100,-78.5968000,Inconclusive,2,1/1/95,1/1/25,1/1/25
1063919,DENT LANE B,35.9549100,-78.3711400,Inconclusive,2,1/1/95,1/1/25,1/1/25
1063921,DENT LANE C,35.9549100,-78.3711400,Inconclusive,2,1/1/95,1/1/25,1/1/25
1063923,EAST SIDE HOMES,35.7107200,-79.8038300,Active,18,1/1/95,1/1/25,1/1/25
1063925,FALLING CREEK VILLAGE,34.9164700,-79.7468000,Active,36,1/1/95,1/1/25,1/1/25
1063927,GRAHAM VILLAGE APARTMENTS,36.0865600,-79.3842900,Active,50,1/1/95,1/1/25,6/18/29
1063929,HOLLY COURT APARTMENTS,36.3415600,-78.4034900,Inconclusive,12,1/1/95,1/1/25,1/1/25
1063931,HORSE CREEK HOUSES C,36.4123900,-78.1552900,Inconclusive,4,1/1/95,1/1/25,1/1/25
1063933,HORSE CREEK HOUSING D,36.4127720,-78.1554850,Inconclusive,4,1/1/95,1/1/25,1/1/25
1063935,HORSE CREEK HOUSING E,36.4123900,-78.1552900,Inconclusive,2,1/1/95,1/1/25,1/1/25
1063937,WOODFIELD SUBDIVISION (LOT 15 SECTION 4),35.7049700,-77.8944000,Inconclusive,1,1/1/95,1/1/25,1/1/25
1063939,WOODFIELD SUBDIVISION (LOT 21 SECTION 4),35.7475100,-77.9386100,Inconclusive,1,1/1/95,1/1/25,1/1/25
1063941,MEADOW BROOK,35.7213600,-81.6667500,Active,38,1/1/95,1/1/25,1/1/25
1063945,MUTUAL MANOR APARTMENTS,35.9611600,-78.9096700,Active,18,1/1/95,1/1/25,1/1/25
1063947,OAKWOOD APARTMENTS PHASE II,36.1276900,-80.6646500,Active,24,1/1/95,1/1/25,1/1/25
1063949,PARKVIEW APARTMENTS,35.5840910,-80.8241210,Active,43,1/1/95,1/1/25,1/1/25
1063951,PINE STREET DUPLEX,36.4526400,-78.5613100,Inconclusive,2,1/1/95,1/1/25,1/1/25
1063967,ROCKWOOD COTTAGES,35.9775630,-78.9243770,Active,21,1/1/95,1/1/25,1/1/25
1063969,SWAIN STREET HOME,36.3204600,-78.3912400,Inconclusive,1,1/1/95,1/1/25,1/1/25
1063971,THE ARBORS,35.8745500,-78.5952800,Active,50,1/1/95,1/1/25,1/1/25
1063973,THE CARILLON,36.1365400,-79.8312500,Active,150,1/1/95,1/1/25,1/1/25
1063975,VICTORIAN ARMS PHASE II,35.8881400,-79.9611600,Inconclusive,12,1/1/95,1/1/25,1/1/25
1064170,MOUNTAIN SPRINGS APARTMENTS,35.5976700,-82.5433400,Active,44,1/1/95,1/1/25,1/1/25
1064407,NORTHGATE APARTMENTS,35.2999800,-81.2802500,Active,34,1/1/95,1/1/25,1/1/25
1064536,MARSH RIDGE PARK,35.8121700,-78.5881200,Inconclusive,48,1/1/95,1/1/25,1/1/25
1064580,,35.4579200,-79.1628300,Active,40,1/1/95,1/1/25,1/1/25
1064616,WOODFIELD SUBDIVISION: LOT 19 SECTION 4,35.6925820,-77.9074890,Active,1,1/1/95,1/1/25,1/1/25
1064620,WOODFIELD SUBDIVISION: LOT 11 SECTION 4,35.6925820,-77.9074890,Inconclusive,1,1/1/95,1/1/25,1/1/25
1064822,ALLIANCE MANOR,35.1448580,-76.8004860,Active,24,1/1/95,1/1/25,1/1/25
1064836,BRIDGEWOOD SQUARE CO-OP,35.4670480,-76.6555530,Active,16,1/1/95,1/1/25,1/1/25
1064855,SEDGEBROOK APARTMENTS,35.7649060,-78.7866420,Active,32,1/1/95,1/1/25,1/1/25
1064871,HYCIENDA HEIGHTS,35.5418830,-76.0519270,Active,24,1/1/95,1/1/25,1/1/25
1064912,RIVERVIEW TOWNES APARTMENTS,35.2711350,-77.5259460,Active,24,1/1/95,1/1/25,1/1/25
1064941,TURNBRIDGE APARTMENTS,36.1477750,-79.7772620,Inconclusive,120,1/1/95,1/1/25,1/1/25
1102095,WOODFIELD SUBDIVISION,35.7055600,-77.8951000,Inconclusive,1,1/1/95,1/1/25,1/1/25
1106539,ORCHARD POINTE,35.7519950,-78.6809960,Active,100,1/1/95,1/1/25,1/1/25
1106542,NORTH STREET HOME,36.3409310,-78.4117310,Inconclusive,1,1/1/95,1/1/25,1/1/25
1106623,AVERY SQUARE,35.7119800,-78.6101100,Active,20,1/1/95,1/1/25,1/1/25
1108068,MOREHEAD GLEN,35.9905120,-78.9167390,Active,20,1/1/95,1/1/25,1/1/25
1108369,EAST HAVEN APARTMENTS,35.7631400,-78.5721300,Active,48,1/1/95,1/1/25,1/1/25
1111854,APTS OF LUMBERTON,34.6207700,-78.9763900,Active,48,9/1/94,1/1/25,12/4/43
1113344,HILL ESTATES,34.5438360,-78.7992270,Active,72,10/24/88,1/1/25,9/23/46
1116815,RIVER PARK APARTMENTS,35.3650010,-83.2457430,Active,27,1/1/95,1/1/25,2/9/45
1118077,RHS APARTMENTS,36.3625580,-79.6703330,Active,53,1/1/95,1/1/25,1/2/46
1118356,COLONIAL LODGE,36.3992600,-78.1548100,Active,32,1/1/95,1/1/25,3/22/58
1118420,HAVELOCK MANOR APARTMENTS,34.8782300,-76.8890900,Active,60,1/21/81,1/1/25,12/12/49
1119055,RIVER TERRACE VILLAGE APARTMENTS,34.6568200,-78.9940800,Active,25,1/1/95,1/1/25,2/11/45
1119082,ROBESON MANOR APARTMENTS,34.4704800,-79.1543300,Active,24,9/1/94,1/1/25,6/4/38
1119230,QUANKEY HILLS APARTMENTS,36.2529100,-77.5592490,Active,24,1/1/95,1/1/25,2/23/45
1122005,OAKDALE APARTMENTS,35.7921830,-78.2108750,Active,24,1/1/95,1/1/25,9/23/45
1122089,WINDSOR VILLAGE,36.0028000,-76.9522000,Active,33,1/1/95,1/1/25,6/4/45
1111172,WESLEY RIDGE,34.6569100,-78.9949300,Active,24,1/1/04,1/4/25,3/31/34
1065317,,35.4919680,-80.6144770,Active,1,1/8/15,1/8/25,1/8/25
1120674,WALLACE SENIOR VILLAGE,34.7368800,-77.9984700,Active,24,1/1/03,1/27/25,12/11/33
1063002,ARC/HDS CUMBERLAND CO GH #3,35.1005460,-78.8834640,Active,6,2/1/20,1/31/25,1/31/25
1063094,ARC/HDS ROWAN COUNTY GROUP HOME #3,35.6959300,-80.5084700,Active,6,1/4/20,1/31/25,1/31/25
1062990,ARC/HDS SAMPSON COUNTY GROUP HOME #2,35.0009000,-78.3119100,Active,6,2/22/20,2/28/25,2/28/25
1063018,ARC/HDS DURHAM CO GH #1,35.9552300,-78.9414200,Active,6,2/20/20,2/28/25,2/28/25
1063064,ARC/HDS WATAUGA COUNTY GROUP HOME,36.1937800,-81.6401300,Active,7,2/8/20,2/28/25,2/28/25
1063120,ARC/HDS MARTIN COUNTY GROUP HOME,35.8536200,-77.0693300,Active,7,3/1/20,2/28/25,2/28/25
1062948,ARC/HDS BLADEN COUNTY GH #2,34.6285100,-78.6139700,Active,7,3/19/20,3/31/25,3/31/25
1063061,ARC/HDS TYRRELL COUNTY GROUP HOME,35.9220900,-76.2495500,Active,7,3/16/20,3/31/25,3/31/25
1063078,ARC/HDS YANCEY COUNTY GROUP HOME,35.9172000,-82.2891700,Active,6,3/20/20,3/31/25,3/31/25
1063240,BREEZE HILL APARTMENTS,35.6920600,-79.8306900,Active,50,4/1/74,3/31/25,3/31/25
1063440,ARC/HDS JONES COUNTY GROUP HOME,35.0307300,-77.2854000,Active,7,3/7/20,3/31/25,3/31/25
1063450,ARC/HDS HOKE CO GH #2,34.9781300,-79.2349200,Active,7,3/13/20,3/31/25,3/31/25
1063460,ARC/HDS HYDE CO GH #1,35.5419700,-76.1664400,Active,7,3/27/20,3/31/25,3/31/25
1063490,ARC/HDS HOKE CO GH #1,34.9696900,-79.2278400,Active,7,3/13/20,3/31/25,3/31/25
1064325,ARC/HDS BLADEN COUNTY GH #1,34.5343560,-78.7878200,Active,7,3/19/20,3/31/25,3/31/25
1064626,ARC/HDS CHEROKEE CO GH #1,35.1981700,-83.8186000,Active,7,3/6/20,3/31/25,3/31/25
1155270,,35.9045540,-79.0672180,Active,28,4/9/20,4/9/25,4/9/25
1063059,ARC/HDS VANCE COUNTY GROUP HOME #1,36.3374360,-78.4162520,Active,6,4/4/20,4/30/25,4/30/25
1116023,DEERFIELD APARTMENTS,36.2038300,-77.7233000,Active,24,1/1/03,5/4/25,12/7/33
1116067,ASHLEY RIDGE APARTMENTS,34.5570730,-77.9303590,Active,20,1/1/04,5/5/25,4/21/35
1063974,HOLLY HAVEN,35.1904800,-83.3548800,Active,48,1/1/04,5/18/25,1/1/34
1062972,ARC/HDS CALDWELL CO GH,35.8428800,-81.4886900,Active,6,5/7/20,5/31/25,5/31/25
1062994,ARC/HDS STANLY COUNTY GROUP HOME #2,35.3420600,-80.1612900,Active,6,5/8/20,5/31/25,5/31/25
1063066,ARC/HDS WILSON COUNTY GROUP HOME #2,35.7416340,-77.9196880,Active,6,5/31/20,5/31/25,5/31/25
1063130,ARC/HDS EDGECOMBE/NASH GH #2,35.9366100,-77.8200900,Active,6,5/24/20,5/31/25,5/31/25
1064846,FY03 HIGHLAND VILLAGE APARTMENTS,35.7834590,-78.7993990,Active,15,6/14/05,6/14/25,6/14/25
1065473,,35.9413480,-77.7746390,Active,2,6/1/09,6/26/25,6/26/25
1062928,ARC/HDS ORANGE COUNTY ICF/MR GH,35.9616100,-79.0411600,Active,7,6/5/20,6/30/25,6/30/25
1062980,ARC/HDS CHATHAM COUNTY GH #2,35.7219240,-79.4768580,Active,7,6/26/20,6/30/25,6/30/25
1063165,MEADOWLARK GLEN APARTMENTS,35.5991920,-80.8023240,Active,76,7/1/05,6/30/25,4/1/52
1064002,BUNCE GREEN APARTMENTS,35.0466700,-78.9979900,Active,80,1/1/05,6/30/25,1/1/35
1064017,BUNCE MANOR APARTMENTS,35.0457000,-78.9967200,Active,48,1/1/05,6/30/25,1/1/35
1064987,,35.5000000,-80.8529700,Active,1,6/30/10,6/30/25,7/1/25
1120525,STEED CIRCLE APARTMENTS,34.7277600,-79.3544500,Active,50,6/4/20,6/30/25,6/30/25
1063285,TAMMY LYNN ICF/MR,35.7702500,-78.6830000,Active,7,12/17/87,7/1/25,8/15/25
1064138,BROOKWOOD APARTMENTS,35.4921300,-81.2388900,Active,28,7/11/05,7/11/25,7/11/25
1063016,ARC/HDS STANLY COUNTY GROUP HOME # 3,35.3682900,-80.1649600,Active,7,7/19/20,7/31/25,7/31/25
1063051,ARC/HDS STANLY COUNTY GROUP HOME #1,35.3508500,-80.1902200,Active,7,7/9/20,7/31/25,7/31/25
1063075,ARC/HDS DAVIDSON CO GH #2,35.7712200,-80.2721900,Active,7,7/31/20,7/31/25,7/31/25
1062951,ARC/HDS PITT COUNTY GROUP HOME #2,35.5845000,-77.3583900,Active,7,8/16/20,8/31/25,8/31/25
1063347,WNC COMMUNITY HOMES #2,35.7931500,-80.8500500,Active,7,9/24/91,8/31/25,1/1/31
1063503,ARC/HDS MCDOWELL CO GROUP HOME #2,35.6237340,-82.0864260,Active,7,8/13/20,8/31/25,8/31/25
1062944,ARC/HDS ANSON COUNTY GH,34.9478300,-80.0742600,Active,7,9/18/20,9/30/25,9/30/25
1062958,ARC/HDS CAMDEN CO GH #1,36.2584200,-76.0540400,Active,7,9/12/20,9/30/25,9/30/25
1063017,ARC/HDS DARE CO GH #1,35.9217900,-75.7035700,Active,7,9/12/20,9/30/25,9/30/25
1063045,ARC/HDS ROWAN COUNTY GROUP HOME #1,35.5716500,-80.5812900,Active,6,9/29/20,9/30/25,9/30/25
1063248,EASTER SEALS UNITED CEREBRAL PALSEY NC HOUSING,35.7933600,-78.6169500,Active,82,7/1/06,9/30/25,6/1/41
1063272,BEACON POINTE APARTMENTS,35.7145300,-77.8817720,Active,104,2/1/74,9/30/25,1/1/36
1063316,ARC/HDS ALAMANCE CO GH #5,36.1091220,-79.2627900,Active,7,9/17/20,9/30/25,9/30/25
1063097,LAGRANGE VILLAGE APARTMENTS,35.3072400,-77.7850500,Active,50,10/3/05,10/2/25,1/1/46
1063926,ROSEDALE II/HOPE HAVEN,35.2584000,-80.8015800,Active,74,1/1/02,10/10/25,1/1/34
1064041,NORTHPOINT COMMONS II,35.6472000,-82.5742100,Active,39,1/1/05,10/26/25,1/1/37
1063004,ARC/HDS CHATHAM COUNTY GH #3,35.7307500,-79.4779300,Active,7,10/9/20,10/31/25,10/31/25
1063063,ARC/HDS WASHINGTON COUNTY GROUP HOME #2,35.8540300,-76.7415900,Active,6,10/29/20,10/31/25,10/31/25
1063119,ARC/HDS FORSYTH CO GH #5,36.1220520,-80.1344230,Active,7,10/3/20,10/31/25,10/31/25
1064323,ARC/HDS COLUMBUS CO GH #2,34.3307210,-78.6930070,Active,7,10/5/20,10/31/25,10/31/25
1062974,ARC/HDS RICHMOND COUNTY GROUP HOME #2,35.0706700,-79.7670000,Active,7,11/14/20,11/13/25,11/13/25
1008827,CREEKSIDE CORNERS #2 DUPLEXS,35.5000060,-80.8528700,Active,9,11/17/05,11/17/25,11/17/25
1120086,CLAYTON COURT APARTMENTS,35.6584700,-78.4544300,Active,12,8/29/75,11/23/25,8/27/32
1062940,ARC/HDS BEAUFORT CO APARTMENTS,35.5563000,-77.0655300,Active,10,11/27/20,11/30/25,11/30/25
1062986,ARC/HDS ROCKINGHAM COUNTY GROUP HOME #3,36.3234700,-79.6720900,Active,7,11/19/20,11/30/25,11/30/25
1063000,ARC/HDS COLUMBUS COUNTY GH #1,34.3263000,-78.6991300,Active,6,11/19/20,11/30/25,11/30/25
1063121,ARC/HDS GUILFORD CO GH #5,36.0111800,-80.0303200,Active,6,11/22/20,11/30/25,11/30/25
1063222,ARC/HDS GASTON CO GH #2,35.2620400,-81.1630800,Active,6,11/25/20,11/30/25,11/30/25
1063233,ARC/HDS MOORE COUNTY GROUP HOME #1,35.1728920,-79.3866130,Active,6,11/19/20,11/30/25,11/30/25
1064339,ARC/HDS JOHNSTON COUNTY GROUP HOME #3,35.4663320,-78.1602370,Active,7,11/29/20,11/30/25,11/30/25
1065167,,35.5345300,-82.6990700,Active,1,12/12/05,12/12/25,12/12/25
1064704,MHO NORTHPOINT COMMONS APARTMENTS PHASE II,35.6371300,-82.5621600,Active,39,12/15/05,12/15/25,10/4/27
1065306,SOUTHVIEW GREEN APARTMENTS,34.9795240,-78.9230410,Active,72,1/1/04,12/19/25,1/1/34
1064132,TARBORO SQUARE,35.8998520,-77.5364070,Active,24,12/20/05,12/20/25,12/20/25
1129721,THE HOLLOWS APARTMENTS,36.2246600,-80.7082400,Active,20,12/21/15,12/21/25,12/21/25
1121866,SEDGEFIELD APARTMENTS,35.5849610,-80.8246690,Active,36,1/3/96,12/26/25,12/26/25
1065259,WESLEY HEIGHTS COMMUNITY DEVELOPMENT INC,35.2356100,-80.8626330,Active,1,12/30/05,12/30/25,12/30/25
1063084,ARC/HDS WILSON COUNTY APARTMENTS,35.7206300,-77.9243500,Active,9,12/17/20,12/31/25,12/31/25
1063105,ARC/HDS EDGECOMBE CO APARTMENTS,35.9287600,-77.7734700,Active,9,12/17/20,12/31/25,12/31/25
1063242,ARC/HDS HALIFAX CO APARTMENTS,36.4453400,-77.6695500,Active,9,12/17/20,12/31/25,12/31/25
1063462,ARC/HDS LENOIR COUNTY APARTMENTS,35.2798200,-77.5795400,Active,9,12/17/20,12/31/25,12/31/25
1004611,CHESHIRE SEVERSVILLE,35.3369850,-80.7939280,Active,102,1/1/96,1/1/26,7/1/47
1063981,MINA HOUSING,35.7543200,-78.5502500,Inconclusive,1,1/1/96,1/1/26,1/1/26
1063983,1823 VINTAGE RD,35.7543200,-78.5496900,Inconclusive,1,1/1/96,1/1/26,1/1/26
1063985,MINA HOUSING,35.7543200,-78.5502500,Inconclusive,1,1/1/96,1/1/26,1/1/26
1063987,1827 VINTAGE RD,35.7543200,-78.5496900,Inconclusive,1,1/1/96,1/1/26,1/1/26
1063989,1832 VINTAGE RD,35.7543200,-78.5502500,Inconclusive,1,1/1/96,1/1/26,1/1/26
1063991,1834 VINTAGE RD,35.7543200,-78.5502500,Inconclusive,1,1/1/96,1/1/26,1/1/26
1063995,1836 VINTAGE RD,35.7543200,-78.5502500,Inconclusive,1,1/1/96,1/1/26,1/1/26
1063997,1838 VINTAGE RD,35.7543200,-78.5502500,Inconclusive,1,1/1/96,1/1/26,1/1/26
1063999,4200 KAPLAN DR,35.7748700,-78.6918800,Inconclusive,1,1/1/96,1/1/26,1/1/26
1064001,4202 KAPLAN DR,35.7748700,-78.6918800,Inconclusive,1,1/1/96,1/1/26,1/1/26
1064005,4208 KAPLAN DR,35.7748700,-78.6918800,Inconclusive,1,1/1/96,1/1/26,1/1/26
1064008,4214 KAPLAN DR,35.7748700,-78.6918800,Inconclusive,1,1/1/96,1/1/26,1/1/26
1064009,4218 KAPLAN DR,35.7748700,-78.6918800,Inconclusive,1,1/1/96,1/1/26,1/1/26
1064010,4220 KAPLAN DR,35.7748700,-78.6918800,Inconclusive,1,1/1/96,1/1/26,1/1/26
1064011,4222 KAPLAN DR,35.7748700,-78.6918800,Inconclusive,1,1/1/96,1/1/26,1/1/26
1064012,4224 KAPLAN DR,35.7748700,-78.6918800,Inconclusive,1,1/1/96,1/1/26,1/1/26
1064015,4230 KAPLAN DR,35.7748700,-78.6918800,Inconclusive,1,1/1/96,1/1/26,1/1/26
1064016,4232 KAPLAN DR,35.7748700,-78.6918800,Inconclusive,1,1/1/96,1/1/26,1/1/26
1064018,4236 KAPLAN DR,35.7756900,-78.6917200,Inconclusive,1,1/1/96,1/1/26,1/1/26
1064019,4238 KAPLAN DR,35.7756900,-78.6917200,Inconclusive,1,1/1/96,1/1/26,1/1/26
1064020,4240 KAPLAN DR,35.7756900,-78.6917200,Inconclusive,1,1/1/96,1/1/26,1/1/26
1064021,4242 KAPLAN DR,35.7756900,-78.6917200,Inconclusive,1,1/1/96,1/1/26,1/1/26
1064022,4244 KAPLAN DR,35.7756900,-78.6917200,Inconclusive,1,1/1/96,1/1/26,1/1/26
1064024,4248 KAPLAN DR,35.7756900,-78.6917200,Inconclusive,1,1/1/96,1/1/26,1/1/26
1064025,4250 KAPLAN DR,35.7756900,-78.6917200,Inconclusive,1,1/1/96,1/1/26,1/1/26
1064027,4256 KAPLAN DR,35.7756900,-78.6917200,Inconclusive,1,1/1/96,1/1/26,1/1/26
1064028,4258 KAPLAN DR,35.7756900,-78.6917200,Inconclusive,1,1/1/96,1/1/26,1/1/26
1064029,4260 KAPLAN DR,35.7756900,-78.6917200,Inconclusive,1,1/1/96,1/1/26,1/1/26
1064030,4262 KAPLAN DR,35.7756900,-78.6917200,Inconclusive,1,1/1/96,1/1/26,1/1/26
1064032,4264 KAPLAN DR,35.7756900,-78.6917200,Inconclusive,1,1/1/96,1/1/26,1/1/26
1064034,4266 KAPLAN DR,35.7756900,-78.6917200,Inconclusive,1,1/1/96,1/1/26,1/1/26
1064036,500-502 HICKS MILL RD,36.3251220,-78.6014890,Inconclusive,2,1/1/96,1/1/26,1/1/26
1064046,BAREFOOT PARK APARTMENTS,35.7090800,-77.9442600,Inconclusive,2,1/1/96,1/1/26,1/1/26
1064048,BAREFOOT PARK APARTMENTS,35.7090800,-77.9442600,Inconclusive,2,1/1/96,1/1/26,1/1/26
1064052,BAREFOOT PARK APTS: LOT 24,35.7090800,-77.9442600,Active,2,1/1/96,1/1/26,1/1/26
1064062,BAREFOOT PARK APARTMENTS,35.7090800,-77.9442600,Inconclusive,2,1/1/96,1/1/26,1/1/26
1064070,BARRETT PLACE APARTMENTS,35.5914100,-77.4009600,Active,48,1/1/96,1/1/26,1/1/26
1064080,RIVER BIRCH APARTMENTS,35.8660000,-78.5929500,Active,176,1/1/96,1/1/26,1/1/26
1064085,THE LOFTS AT NODA MILLS,35.2493400,-80.8024900,Active,60,1/1/96,1/1/26,1/1/26
1064091,SALEM CREST APARTMENTS,36.0604320,-80.2733020,Active,144,1/1/96,1/1/26,1/1/26
1064093,WOODLAND HILLS,35.9129750,-82.2904890,Active,32,1/1/96,1/1/26,1/1/26
1064144,Alexander Homes,36.0683300,-79.7633900,Active,40,1/1/96,1/1/26,1/1/26
1064206,EAGLE TRACE APARTMENTS,35.9912000,-78.5014400,Active,56,1/1/96,1/1/26,1/1/26
1064253,CAPITAL TOWERS I,35.8455700,-78.6416700,Inconclusive,208,12/1/73,1/1/26,1/1/26
1064425,ST ANDREW'S HOMES,35.2177400,-80.7840400,Active,34,1/1/96,1/1/26,1/1/26
1064606,BAREFOOT PARK APARTMENTS,35.6925820,-77.9074890,Inconclusive,3,1/1/96,1/1/26,1/1/26
1064833,BAREFOOT PARK APARTMENTS,35.7090800,-77.9442600,Inconclusive,2,1/1/96,1/1/26,1/1/26
1064868,FOREST PARK GARDENS PHASE I,35.7955800,-80.8682600,Active,40,1/1/96,1/1/26,1/1/26
1064884,GREENS OF PINE GLEN TOWNHOUSES I,35.9081500,-78.9202500,Active,152,1/1/96,1/1/26,1/1/26
1064946,BETHABARA POINTE,36.1612200,-80.2911420,Active,160,1/1/96,1/1/26,1/1/26
1106497,MAPLE RIDGE APARTMENTS PHII,35.6515390,-78.8226700,Active,45,1/1/96,1/1/26,1/1/26
1106568,GREENS OF CONCORD,35.4236900,-80.5833500,Active,152,1/1/96,1/1/26,1/1/26
1106629,LAURELWOOD PARK APARTMENTS,35.9399000,-80.0455500,Active,100,1/1/96,1/1/26,1/1/26
1106633,TOWNE CENTER,34.7514700,-77.4094400,Inconclusive,478,1/1/96,1/1/26,1/1/26
1106638,HUNTERS LANDING,35.1264060,-77.0950580,Active,48,1/1/96,1/1/26,1/1/26
1106701,BILTMORE HILLS APARTMENTS,35.9240420,-78.5654910,Active,50,1/1/96,1/1/26,1/1/26
1107164,GREENS OF PINE GLEN TOWNHOUSES PHASE II,35.9079780,-78.9227110,Active,16,1/1/96,1/1/26,1/1/26
1107191,GREENS AT PINE GLEN,35.9080120,-78.9223240,Active,168,1/1/96,1/1/26,1/1/26
1107782,CAROLINA PINES APARTMENTS,34.7347000,-79.3589040,Active,32,3/18/83,1/1/26,12/8/39
1108114,CAMBRIDGE VILLAGE,35.9991000,-78.8693600,Active,83,1/1/96,1/1/26,1/1/26
1108126,SHAMMAH WINDS APARTMENTS,35.7636370,-78.6297360,Active,32,1/1/96,1/1/26,1/1/26
1108317,RIPLEY STATION,35.7843600,-78.5814300,Active,48,1/1/96,1/1/26,1/1/26
1115697,MATTAMUSKEET VILLAGE APARTMENTS,35.4936340,-76.0347790,Active,16,1/1/96,1/1/26,10/19/46
1115721,ST PAULS GREEN APARTMENTS,34.8153390,-78.9764300,Active,24,1/1/96,1/1/26,10/12/46
1116776,WOODGATE APARTMENTS,35.8224810,-76.2009140,Active,34,1/1/96,1/1/26,2/9/46
1117799,FAIRINGTON WEST APARTMENTS,35.4340800,-80.6311300,Active,48,9/8/95,1/1/26,8/22/48
1118505,BROOKSIDE APARTMENTS,34.7365800,-79.3570900,Active,32,1/1/96,1/1/26,12/11/46
1121036,IVY TERRACE APARTMENTS,36.2050800,-81.6621600,Active,34,1/1/96,1/1/26,9/20/46
1122041,WOODCREEK VILLAGE APARTMENTS,34.9917450,-79.2319050,Active,27,1/1/96,1/1/26,1/17/46
1146688,,35.0559700,-78.8763510,Active,2,1/6/16,1/6/26,1/6/26
1063202,ARC/HDS LENOIR COUNTY GROUP HOME #1,35.2911100,-77.5729300,Active,6,1/21/21,1/31/26,1/31/26
1065069,DURHAM COMMUNITY LAND TRUSTEE,35.9957610,-78.9155520,Active,4,2/2/11,2/2/26,2/2/26
1063437,GARDENWOOD APARTMENTS,34.9202700,-79.7567100,Active,40,6/1/74,2/14/26,1/1/41
1063012,CARTERET COURT APARTMENTS,34.7192400,-76.6509900,Active,78,2/16/06,2/15/26,5/1/51
1064464,SEAGER PLACE,36.1063470,-79.8931470,Active,42,1/1/04,2/24/26,1/1/34
1064045,THE PARK AT CLINE VILLAGE,35.7495300,-81.1988100,Active,48,1/1/05,3/29/26,1/1/35
1128113,BUILDERS OF HOPE CHDO BRADFORD APARTMENTS,35.2576470,-80.8979020,Active,43,4/4/16,4/4/26,4/4/26
1064931,MOUNTAIN VIEW SENIOR APARTMENTS,36.1194500,-80.0725900,Active,50,1/1/05,4/20/26,1/1/35
1120920,ELMWOOD APARTMENTS,35.3100430,-77.1564530,Active,24,1/1/05,4/28/26,3/30/36
1063303,TANGLEWOOD APARTMENTS,35.0051100,-78.0997400,Active,50,9/1/75,5/1/26,1/1/38
1064037,ELDERS PEAK APARTMENTS,35.7386600,-78.6060000,Active,48,1/1/05,5/17/26,1/1/35
1065222,WITH FRIENDS,35.2514560,-81.1906450,Active,1,5/17/11,5/17/26,5/17/26
1128108,,35.5799520,-82.5639470,Active,22,6/28/16,6/28/26,6/28/26
1064043,PINERIDGE MANOR,34.9802400,-78.9578900,Active,60,1/1/05,6/30/26,1/1/35
1064180,FREEDOM HOUSE,35.9562200,-79.0597700,Active,10,6/30/06,6/30/26,6/30/26
1064466,RANKIN SCHOOL PLACE,36.1207800,-79.7609000,Active,56,1/1/05,6/30/26,1/1/35
1064047,WEATHERSTONE SPRING CONGREGATE CARE LIVING SENIORS,35.7915600,-78.8087700,Active,72,1/1/05,7/25/26,1/1/35
1063990,THE COMMONS AT HIGHLAND VILLAGE,35.7838000,-78.7955300,Active,68,1/1/04,7/26/26,1/1/34
1064051,WINDSOR SPRING CONGREGATE CARE FOR SENIORS,35.8709900,-78.6824100,Active,39,1/1/05,7/26/26,1/1/35
1110911,ASHTON SPRING APARTMENTS,35.4658600,-77.4266300,Active,25,1/1/05,7/26/26,3/9/36
1008910,EAST SALEM APARTMENTS INC,36.0992580,-80.2266080,Active,12,8/18/06,8/18/26,8/18/26
1063098,VANDERBILT APARTMENTS,35.5970400,-82.5550400,Active,154,9/1/70,8/31/26,12/1/40
1121879,SUGARLOAF APARTMENTS,35.3410500,-82.4316400,Active,44,9/9/93,9/1/26,9/1/26
1065270,STH-408 CADILLAC STREET,35.6140840,-77.3895830,Active,1,9/16/11,9/16/26,6/12/32
1065278,STH-906 BANCROFT AVENUE,35.6089820,-77.3910050,Active,1,9/16/11,9/16/26,9/16/26
1012504,HIGHLAND VIEW APARTMENTS,35.2933420,-82.4352390,Active,28,1/1/06,9/28/26,1/1/36
1064908,NEW CONSTRUCTION,36.0856680,-79.0833370,Active,15,9/28/06,9/28/26,9/28/26
1064553,PROVIDENCE PLACE,36.0795080,-80.2363580,Active,56,1/1/06,9/29/26,1/1/36
1064033,CARDINAL CHASE,35.7245390,-79.4475530,Active,48,1/1/05,10/4/26,1/1/35
1109159,DEER VIEW APARTMENTS,35.4690300,-77.4065600,Active,25,1/1/05,10/4/26,5/15/36
1063173,LAKE ROAD APARTMENTS,35.9480040,-80.0102390,Active,99,4/1/82,10/7/26,1/1/54
1065051,CASA - 217 W GEER STREET,36.0035220,-78.8975520,Active,7,11/4/11,11/4/26,11/4/26
1064146,RUTH'S HOUSE II,35.8728800,-78.5184800,Active,22,11/4/05,11/7/26,11/7/26
1064063,CEDAR SPRING - A SENIOR LIVING COMMUNITY,35.7796400,-78.3668900,Active,20,1/1/06,12/18/26,1/1/36
1064888,CALDWELL GARDENS,35.9260300,-81.5463600,Active,97,9/1/97,12/20/26,1/1/40
1064095,1824 VINTAGE RD,35.7543200,-78.5502500,Inconclusive,1,1/1/97,1/1/27,1/1/27
1064097,1825 VINTAGE RD,35.7543200,-78.5496900,Inconclusive,1,1/1/97,1/1/27,1/1/27
1064099,1828 VINTAGE RD,35.7543200,-78.5502500,Inconclusive,1,1/1/97,1/1/27,1/1/27
1064101,1829 VINTAGE RD,35.7543200,-78.5496900,Inconclusive,1,1/1/97,1/1/27,1/1/27
1064103,1833 VINTAGE RD,35.7543200,-78.5496900,Inconclusive,1,1/1/97,1/1/27,1/1/27
1064104,1837 VINTAGE RD,35.7543200,-78.5496900,Inconclusive,1,1/1/97,1/1/27,1/1/27
1064119,216 & 218 COOPER STREET,36.0924200,-78.3035200,Inconclusive,2,1/1/97,1/1/27,1/1/27
1064123,5410 TALSERWOOD DR,35.7523700,-78.5501200,Inconclusive,1,1/1/97,1/1/27,1/1/27
1064125,5411 TALSERWOOD DR,35.7531900,-78.5500800,Inconclusive,1,1/1/97,1/1/27,1/1/27
1064127,5412 TALSERWOOD DR,35.7523700,-78.5501200,Inconclusive,1,1/1/97,1/1/27,1/1/27
1064129,5413 TALSERWOOD DR,35.7531900,-78.5500800,Inconclusive,1,1/1/97,1/1/27,1/1/27
1064131,5414 TALSERWOOD DR,35.7523700,-78.5501200,Inconclusive,1,1/1/97,1/1/27,1/1/27
1064133,5415 TALSERWOOD DRIVE,35.7531900,-78.5500800,Inconclusive,1,1/1/97,1/1/27,1/1/27
1064135,5416 TALSERWOOD DR,35.7523700,-78.5501200,Inconclusive,1,1/1/97,1/1/27,1/1/27
1064141,5422 TALSERWOOD DR,35.7523700,-78.5501200,Inconclusive,1,1/1/97,1/1/27,1/1/27
1064143,5423 TALSERWOOD DR,35.7531900,-78.5500800,Inconclusive,1,1/1/97,1/1/27,1/1/27
1064145,5424 TALSERWOOD DR,35.7523700,-78.5501200,Inconclusive,1,1/1/97,1/1/27,1/1/27
1064147,5426 TALSERWOOD DR,35.7523700,-78.5501200,Inconclusive,1,1/1/97,1/1/27,1/1/27
1064149,5428 TALSERWOOD DR,35.7523700,-78.5501200,Inconclusive,1,1/1/97,1/1/27,1/1/27
1064151,5430 TALSERWOOD DR,35.7523700,-78.5501200,Inconclusive,1,1/1/97,1/1/27,1/1/27
1064153,5432 TALSERWOOD DR,35.7523700,-78.5501200,Inconclusive,1,1/1/97,1/1/27,1/1/27
1064155,5434 TALSERWOOD DR,35.7523700,-78.5501200,Inconclusive,1,1/1/97,1/1/27,1/1/27
1064157,911 S MAIN ST,36.0908800,-78.3068900,Inconclusive,1,1/1/97,1/1/27,1/1/27
1064161,CHESTNUT PLACE APARTMENTS,34.6414600,-78.9894600,Active,48,1/1/97,1/1/27,1/1/27
1064163,GARDEN SPRING APARTMENTS,35.7775300,-78.5879200,Active,33,1/1/97,1/1/27,1/1/27
1064169,MARSH CREEK APARTMENTS,35.8103100,-78.5931800,Active,24,1/1/97,1/1/27,1/1/27
1064171,PARK PLACE APARTMENTS PHASE II,35.7932100,-78.4880900,Active,50,1/1/97,1/1/27,1/1/29
1064173,PARKVIEW APARTMENTS,35.3062800,-82.4456900,Active,32,1/1/97,1/1/27,1/1/27
1064175,SOUTHWOODS,36.0424840,-79.8028080,Active,59,1/1/97,1/1/27,1/1/27
1064177,THE DORCHESTER,35.0690000,-80.8838300,Active,99,1/1/97,1/1/27,1/1/27
1064179,THE MAGNOLIAS,35.7933300,-78.6102300,Active,40,1/1/97,1/1/27,11/24/29
1064181,WESTON TRACE,35.7197490,-78.6163820,Active,48,1/1/97,1/1/27,1/1/27
1064183,WESTRIDGE WOODS APARTMENTS,35.7803100,-78.7292600,Inconclusive,16,1/1/97,1/1/27,1/1/27
1064518,THE WILLOWS,35.7239600,-81.6717360,Active,36,1/1/97,1/1/27,1/1/27
1064642,JACKSON TERRACE,35.3215100,-79.3978700,Active,16,1/1/97,1/1/27,1/1/27
1064690,AUTUMN CHASE APARTMENTS,35.1024200,-77.0201000,Active,34,1/1/97,1/1/27,1/1/27
1064853,THE RESERVE AT ASHELYN GLEN,35.7477200,-79.8082400,Active,72,1/1/97,1/1/27,1/1/27
1064948,PINE VALLEY APARTMENTS,36.1661740,-80.2840890,Active,108,1/1/97,1/1/27,1/1/27
1102640,THE PINES AT LAKE ROAD,34.8801100,-76.9266700,Active,60,1/1/97,1/1/27,2/15/58
1106429,PIEDMONT POINTE,35.5951410,-80.8100040,Active,144,1/1/97,1/1/27,1/1/27
1106515,SHERWOOD PARK APARTMENTS,36.0032440,-78.8703910,Active,71,1/1/97,1/1/27,1/1/27
1106609,WILD GEESE LANDING TOWNHOMES,36.1396110,-75.8368810,Active,44,1/1/97,1/1/27,1/1/27
1106639,THE PINES AT CAROLINA PLACE,35.0696420,-80.8807510,Active,200,1/1/97,1/1/27,1/1/27
1107659,DEERFIELD CROSSING APARTMENTS,36.0649840,-79.2974740,Active,120,1/1/97,1/1/27,1/1/27
1108054,GREENFIELD APARTMENTS,34.7626230,-79.4926530,Active,48,1/1/97,1/1/27,1/1/27
1108142,OAK CREST APARTMENTS,35.4680100,-80.5986000,Active,100,1/1/97,1/1/27,1/1/27
1108407,CONCORD POINTE,35.3650840,-80.6340880,Active,104,1/1/97,1/1/27,1/1/27
1108487,TYLER PLACE,34.9152840,-76.9379240,Active,60,1/1/97,1/1/27,1/1/27
1108488,FOX HAVEN APARTMENTS,35.8739400,-78.5533900,Active,48,1/1/97,1/1/27,1/1/27
1108663,ROSEWOOD ESTATES I,34.6213000,-78.7593200,Active,56,6/13/86,1/1/27,9/23/46
1116444,HOPEWELL VILLAGE APARTMENTS,35.1037900,-84.0187900,Active,24,1/1/97,1/1/27,2/18/47
1116853,WINNINGHAM VILLAGE APARTMENTS,35.6682400,-82.0144700,Active,36,1/1/97,1/1/27,9/9/46
1120360,SEDGEWOOD APARTMENTS,36.3877700,-76.9406700,Active,24,7/23/82,1/1/27,11/23/48
1120663,VALLEY PLACE APARTMENTS,35.9153930,-82.2996290,Active,18,1/1/97,1/1/27,7/7/47
1120898,HAWTHORNE VILLAGE APARTMENTS,36.1293800,-77.4189200,Active,20,6/3/92,1/1/27,2/27/28
1120937,TILGHMAN SQUARE APARTMENTS,35.3152200,-78.5885900,Active,20,1/1/97,1/1/27,10/2/47
1121794,THE OAKS,35.9251400,-81.1747800,Active,40,10/30/96,1/1/27,6/19/49
1122331,MIDDLESEX MANOR,35.7773900,-78.2077100,Active,16,1/16/79,1/1/27,4/20/42
1122143,CRESTVIEW APARTMENTS,36.4942500,-81.1345500,Active,32,11/28/83,2/2/27,2/2/27
1064196,"NEW HOPE VILLAGE HOUSING ASSOC,LLC",35.8045730,-78.5644300,Active,45,2/12/07,2/12/27,2/12/27
1065314,,35.4924770,-80.6141330,Active,1,2/28/12,2/28/27,2/28/27
1128136,,35.7833350,-78.6891350,Active,11,4/6/17,4/6/27,6/22/27
1064950,ENFIELD SCHOOL APARTMENTS,36.1842800,-77.6758200,Active,36,1/1/10,4/11/27,1/1/40
1065427,EN) OAK HOLLOW APARTMENTS,35.7758360,-78.5817410,Active,10,4/25/07,4/25/27,4/25/27
1009431,HOUSING REHABILITATION PROGRAM,35.9191160,-79.0607840,Active,10,5/7/12,5/7/27,5/7/27
1064075,LEGION CROSSING APARTMENTS,34.9957030,-78.9209490,Active,48,1/1/06,5/8/27,1/1/36
1065234,WINDHILL COURT LLC,36.1200900,-79.7436700,Active,64,5/12/07,5/12/27,5/12/27
1004859,SIX CHURCHES PLAZA-KINSTON TOWERSII,35.2646800,-77.5799300,Active,110,7/1/07,6/1/27,8/18/27
1063037,CHURCH MANOR/ROLAND L PAYLOR APARTMENTS,35.2661700,-77.5840400,Active,40,7/1/07,6/1/27,11/30/36
1128126,MILLER GROVE APARTMENTS,36.0741220,-79.7837470,Active,48,6/15/07,6/15/27,3/12/28
1128148,PLAZA WEST DEVELOPMENT LLC,36.0798510,-80.2365160,Active,11,6/21/07,6/21/27,6/21/27
1064084,THE GRIFFIN APARTMENTS,35.5926900,-82.5578700,Active,50,1/1/06,6/25/27,1/1/36
1065560,,34.2334820,-77.9307630,Active,2,6/30/07,6/30/27,6/30/27
1065423,OAK HOLLOW APARTMENTS,35.7641800,-78.5672300,Active,10,7/16/07,7/16/27,9/5/28
1063960,WOODGREEN II APARTMENTS,35.1336800,-79.4427400,Active,44,1/1/03,8/15/27,1/1/35
1064088,VILLAGE OF NEW HOPE,35.8042600,-78.5634300,Active,45,1/1/06,8/17/27,1/1/36
1064077,PERRY HILL APARTMENTS,35.8735800,-78.5401700,Active,48,1/1/06,8/22/27,1/1/36
1010220,HIGHLAND VILLAGE APARTMENTS,35.7845180,-78.7945060,Active,50,1/1/05,8/28/27,1/1/35
1017475,SPRINGWOOD APARTMENTS,36.3297360,-78.4155420,Active,50,1/1/72,8/31/27,1/1/37
1064126,WATERBROOK APARTMENTS,35.7764900,-78.5804600,Active,64,1/1/07,9/6/27,1/1/37
1065443,PERRY CREEK HOUSING ASSOCIATES-7350 LOUI,35.8739300,-78.5424100,Active,48,9/7/07,9/7/27,9/7/27
1064079,PHOENIX PARK II,34.7927920,-77.4318020,Active,48,1/1/02,9/26/27,1/1/36
1064158,MONTGOMERY GARDENS APARTMENTS,35.3065100,-80.8593700,Active,76,9/27/07,9/27/27,9/27/27
1065263,Honeycreek Senior Apartments,35.1983200,-80.7195600,Active,78,1/1/04,9/27/27,1/1/34
1064124,THE HAVENS AT WILLOW OAKS,36.0653800,-79.7616900,Active,60,1/1/07,9/29/27,1/1/37
1065272,,35.6136210,-77.3899800,Active,1,10/4/12,10/4/27,10/4/27
1065510,CRESTON COMMONS II,35.1806800,-79.4282500,Active,32,1/1/05,10/22/27,1/1/35
1065005,PARTNERSHIP VILLAGE - PHASE III,36.1274690,-79.7919240,Active,12,11/2/07,11/2/27,11/2/27
1120119,SHALLOTTE MANOR APARTMENTS,33.9773610,-78.4054570,Active,36,8/1/85,11/3/27,11/3/27
1010451,,35.9909310,-78.8920140,Active,10,11/28/07,11/28/27,11/28/27
1023223,SCOTT MITCHELL APARTMENTS III,36.4093100,-78.2640200,Active,16,6/14/89,12/1/27,3/18/48
1065564,,34.2325850,-77.9306580,Active,2,12/6/07,12/6/27,12/6/27
1107489,SANDHILL MANOR ON COURTLAND,35.4588670,-79.1643570,Active,50,1/1/07,12/20/27,1/1/37
1008992,INDEPENDENCE COTTAGES PHASE 2,35.5967940,-82.5417940,Active,4,12/31/07,12/31/27,12/31/27
1115571,WAYNESVILLE TOWERS,35.4897000,-82.9895100,Active,62,6/5/81,12/31/27,5/24/31
1064152,HOPEWOOD APARTMENTS,34.2187450,-77.9300510,Active,16,1/1/98,1/1/28,1/1/28
1064187,CAMELLIA COURT APARTMENTS,34.7349100,-76.7819900,Active,44,1/1/98,1/1/28,1/1/28
1064188,APPLE TREE APARTMENTS,35.4556750,-79.1465040,Active,40,1/1/98,1/1/28,1/1/28
1064191,CASPN HOMES SUPPORTIVE HOUSING FOR THE ELDERLY,35.6947100,-79.8170000,Active,51,1/1/98,1/1/28,1/1/28
1064193,EXCELSIOR APARTMENTS,35.2641900,-82.7063000,Active,20,1/1/98,1/1/28,1/1/28
1064195,GLENDALE APARTMENTS,36.0027400,-78.8954600,Active,29,1/1/98,1/1/28,1/1/28
1064197,HOOPER SCHOOL APARTMENTS,34.2215500,-77.9423100,Active,50,1/1/98,1/1/28,1/1/28
1064199,LONGVIEW APARTMENTS,35.1111500,-78.8775400,Active,48,1/1/98,1/1/28,3/1/55
1064201,MANOR RIDGE APARTMENTS,34.9790200,-80.4487600,Active,32,1/1/98,1/1/28,1/1/28
1064203,MC CORMICK HEIGHTS,35.5888700,-82.5479700,Active,100,7/1/72,1/1/28,1/1/28
1064205,OVERLOOK APARTMENTS,35.5832500,-82.5633000,Active,112,1/1/98,1/1/28,1/1/28
1064209,IVY COMMONS,35.9654800,-78.9085800,Active,223,1/1/98,1/1/28,1/1/28
1064211,WEST HAVEN APARTMENTS,35.7182500,-78.8561800,Active,72,1/1/98,1/1/28,1/1/28
1064212,SOMERSET COURT APARTMENTS,35.7203900,-77.8899400,Active,48,1/1/98,1/1/28,1/1/28
1064213,WOODLAND PARK APARTMENTS,35.7374600,-81.3711500,Active,64,1/1/98,1/1/28,1/1/28
1064215,WOODRIDGE APARTMENTS,35.6016300,-82.5845100,Active,160,9/1/73,1/1/28,8/1/51
1064287,CATELAND PLACE,35.7350100,-79.4769400,Active,64,1/1/98,1/1/28,1/1/28
1064360,FIRST WARD PLACE,35.2252200,-80.8337000,Active,120,9/30/67,1/1/28,1/1/28
1064401,RIVER GLEN,35.4581000,-82.5357600,Active,38,1/1/98,1/1/28,1/1/28
1064405,NORTHGATE PHASE II APARTMENTS,35.2986400,-81.2813100,Active,24,1/1/98,1/1/28,1/1/28
1064409,CAROLINA SPRING,35.9123800,-79.0941200,Active,124,1/1/98,1/1/28,1/1/28
1064448,OLDE SCHOOL COMMONS APARTMENTS,35.7126000,-78.6115700,Active,45,1/1/98,1/1/28,1/1/28
1064516,STONECREEK APARTMENTS,35.5570300,-80.8184200,Active,100,1/1/98,1/1/28,1/1/28
1064698,RIDGEWOOD APARTMENTS,35.9700300,-78.5279000,Active,50,1/1/98,1/1/28,1/1/28
1064797,PARKVIEW APARTMENTS,35.4143400,-80.8529600,Active,108,1/1/98,1/1/28,1/1/28
1064815,BARRETT PLACE II,35.5915400,-77.4010300,Active,48,1/1/98,1/1/28,1/1/28
1064865,LAKESIDE APARTMENTS,36.3006960,-76.2125540,Active,50,1/1/98,1/1/28,1/1/28
1064961,WOODLAND OLNEY SCHOOL APARTMENTS,36.3349700,-77.2040600,Active,30,1/1/98,1/1/28,1/1/28
1106513,WILRIK HOTEL APARTMENTS,35.4820270,-79.1799460,Active,41,1/1/98,1/1/28,1/1/28
1107073,FOXBOROUGH PINES,36.3185940,-78.3733750,Active,60,1/1/98,1/1/28,3/1/53
1108258,COLEY-JENKINS INDEPENDENT LIVING CENTER,36.0921300,-79.7561400,Active,40,1/1/98,1/1/28,1/1/28
1108511,MILBURNIE ROAD APARTMENTS,35.7899700,-78.6050700,Active,50,1/1/98,1/1/28,1/1/28
1117023,WOODFIELD II,34.4846600,-79.1131900,Active,26,1/1/98,1/1/28,9/20/28
1117621,WESTVIEW APARTMENTS,35.2127200,-80.0077600,Active,18,11/6/97,1/1/28,10/26/42
1122114,CEDAR VILLAGE APARTMENTS,35.5533230,-76.6286660,Active,28,1/1/98,1/1/28,10/27/28
1151335,FOREST PARK GARDENS PHASE II,35.7959810,-80.8692980,Active,40,1/1/98,1/1/28,1/1/28
1065175,,35.9179140,-79.0861410,Active,2,1/9/13,1/9/28,1/9/28
1065177,PROPERTY ACQUISITION - CARRBORO,35.9176630,-79.0864950,Active,1,1/9/13,1/9/28,1/9/28
1065211,,35.9183310,-79.0635860,Active,1,1/9/13,1/9/28,1/9/28
1065169,,35.9176000,-79.0864100,Active,1,1/10/13,1/10/28,1/10/28
1065203,,35.9103010,-79.0647690,Active,1,1/10/13,1/10/28,1/10/28
1065215,,35.9089700,-79.1142200,Active,1,1/10/13,1/10/28,1/10/28
1008780,CAC OF METROLINA #6,35.1309900,-80.8323200,Active,5,1/23/08,1/23/28,6/28/45
1009970,COMMUNITY APARTMENTS CORP OF METROLINA #7,35.4735400,-80.5961600,Active,8,1/23/08,1/23/28,1/23/28
1012143,CHC OF CABARRUS COUNTY #2,35.3922000,-80.5565030,Active,7,1/23/08,1/23/28,8/26/47
1065089,COMMUNITY APARTMENTS CORP OF RANDOLPH COUNTY,35.6833720,-79.8352160,Active,10,1/23/08,1/23/28,1/23/28
1065358,,35.6004800,-80.8045280,Active,1,1/24/13,1/24/28,1/24/28
1065048,HOUSING FOR NEW HOPE,35.9935600,-78.8905420,Active,10,1/30/08,1/30/28,1/30/28
1064071,FOX HOLLOW,34.7915700,-77.4316500,Active,44,1/1/06,2/8/28,1/1/36
1011260,,35.2675720,-81.1886890,Active,4,2/26/08,2/26/28,2/26/28
1118408,DEERFIELD II,35.6819200,-77.6448200,Active,20,3/14/78,2/29/28,8/31/40
1118407,WINTERVILLE COURT,35.5320600,-77.3973500,Active,30,3/14/78,3/1/28,12/31/38
1128111,,35.2623170,-80.8519870,Active,2,3/29/18,3/29/28,3/29/28
1147323,M06MAGNOLIAPARKLP RH,35.1775700,-80.9326400,Active,24,10/3/06,4/7/28,4/7/28
1064122,TERRACE SPRING,35.8359280,-78.5705850,Active,48,1/1/07,4/24/28,1/1/37
1064105,EDENBRIDGE,34.7323800,-76.7586600,Active,40,1/1/07,4/28/28,1/1/37
1017465,BEAUMONT AVENUE APARTMENTS,36.1049000,-79.4148690,Active,100,2/1/73,4/30/28,4/30/28
1064668,LIFE HOUSE OF GREENVILLE,35.5781100,-77.3410200,Active,20,2/1/02,5/12/28,5/12/28
1012295,MAPLE RIDGE APARTMENTS - PHASE 3,35.0655590,-79.0404890,Active,80,5/30/08,5/30/28,1/1/40
1064752,BLANTON GREEN III APARTMENTS,35.0929100,-78.9405500,Active,36,1/1/07,5/30/28,1/1/37
1065558,THE ARC OF NC,34.2466930,-77.8954990,Active,4,5/30/08,5/30/28,5/30/28
1065568,,34.2066480,-77.9418760,Active,4,5/30/08,5/30/28,5/30/28
1023152,COSMO AND LEWIS ESTATES,35.7518300,-78.6181300,Active,14,11/3/89,6/1/28,8/10/33
1128121,,35.9972040,-78.9002110,Active,6,6/5/08,6/5/28,6/5/28
1107644,English Hills LLC,35.2351820,-82.7434330,Active,40,1/1/06,6/13/28,1/1/36
1064282,MAPLE RIDGE,35.0642900,-79.0408400,Active,48,1/1/08,6/18/28,1/1/38
1063134,WALKER LANDING APARTMENTS,36.2896200,-76.2341200,Active,155,8/1/74,6/30/28,3/1/49
1063181,CAROLINA COVE APARTMENTS,35.5918000,-77.3878400,Active,100,5/1/74,6/30/28,1/1/40
1106377,SUGAR HILL APARTMENTS,35.3419400,-82.4308300,Active,40,1/1/07,6/30/28,1/1/37
1116052,HICKORY HOLLOW APARTMENTS,35.4867170,-83.0025140,Active,72,4/13/78,6/30/28,6/30/28
1009303,MILSTEAD WOODS,36.1479450,-81.1492190,Active,41,7/15/13,7/15/28,2/6/34
1118594,ARDEN TOWN VILLAS,35.4582890,-82.5157660,Active,52,12/6/78,7/23/28,7/23/28
1064988,CREEKSIDE CORNERS III NEW CONSTR,35.5003230,-80.8527320,Active,3,7/30/08,7/30/28,7/30/28
1063184,WNC MITCHELL COUNTY GROUP HOME,36.0121200,-82.1643100,Active,7,3/23/90,9/1/28,8/25/33
1065315,,35.4922980,-80.6142020,Active,1,9/4/13,9/4/28,9/4/28
1011890,APARTMENT 4,35.9448470,-77.8035890,Active,4,9/25/08,9/25/28,9/25/28
1115613,PINE NEEDLE APARTMENTS,35.4525470,-82.5087340,Active,46,1/31/79,10/17/28,10/17/28
1121882,GROVE CREEK APARTMENTS,34.9640270,-77.9677080,Active,36,12/20/79,10/29/28,10/29/28
1121100,OAKWOOD VILLAGE APARTMENTS,35.3824600,-81.9641200,Active,28,8/12/98,11/24/28,1/1/29
1009064,GOLER MANOR,36.1021190,-80.2421910,Active,79,12/11/08,12/11/28,9/4/47
1119722,CROSS CREEK APARTMENTS,35.8814740,-81.5140300,Active,65,4/11/78,12/25/28,12/25/28
1063817,SACRED HEART VILLAS,33.9509460,-78.0349920,Active,44,1/1/99,1/1/29,1/1/29
1063838,E K BEST JR VILLAGE APARTMENTS PHASE II,35.2719600,-77.5651100,Active,50,1/1/99,1/1/29,1/1/30
1064217,BRAXTON MANOR,35.7235200,-79.4603600,Active,32,1/1/99,1/1/29,1/1/29
1064219,CROSSWINDS GREEN II,34.9974500,-78.9188200,Active,48,1/1/99,1/1/29,1/1/31
1064227,MEADOW SPRING APARTMENTS,35.7817100,-78.7229500,Active,33,1/1/99,1/1/29,1/1/29
1064411,PAMLICO APARTMENTS,35.2272100,-80.8159000,Active,32,1/1/99,1/1/29,2/27/32
1064433,CHAPMAN POINTE,35.3032200,-81.1674000,Inconclusive,76,1/1/99,1/1/29,1/1/29
1064939,PARTNERSHIP VILLAGE,36.1281100,-79.7917000,Active,32,1/1/99,1/1/29,1/1/29
1064942,TURNBRIDGE APARTMENTS PHASE II,36.1469300,-79.7795500,Inconclusive,60,1/1/99,1/1/29,1/1/29
1102697,WESTWOOD PARK APARTMENTS,35.7993600,-78.8713500,Active,72,1/1/99,1/1/29,1/1/29
1106299,PIRATES MOOR TOWNHOMES,36.0050140,-75.6561950,Active,44,1/1/99,1/1/29,1/1/29
1106393,THE MEADOWS,36.0101400,-79.8078600,Active,72,1/1/99,1/1/29,1/1/29
1106503,LAUREL POINTE,35.6931040,-80.5255160,Active,100,1/1/99,1/1/29,1/1/29
1106637,WHITE LAUREL,36.2125170,-81.6413050,Active,42,1/1/99,1/1/29,1/1/29
1106761,CREEKSIDE AT BELLEMEADE,35.9305620,-79.9818240,Active,76,1/1/99,1/1/29,1/1/29
1107351,WYNWOOD PLACE,35.7703200,-78.6197800,Inconclusive,24,1/1/99,1/1/29,1/1/29
1107484,CHARLOTTE SPRING,35.3115150,-80.8353740,Active,76,1/1/99,1/1/29,1/1/29
1107544,CANNON PLACE APARTMENTS,36.0798790,-79.3910280,Active,74,1/1/99,1/1/29,7/1/51
1107655,FOXRIDGE APARTMENTS,35.9300830,-78.8133580,Active,92,1/1/99,1/1/29,1/1/29
1107734,EV WILKINS COURT HOMES,35.8804590,-76.6172260,Active,16,1/1/99,1/1/29,1/1/29
1108518,ST LEO'S PLACE AT GREAT OAKS,36.0842400,-79.7784200,Active,44,1/1/99,1/1/29,1/1/29
1115527,NEW HORIZONS APARTMENTS,35.5546100,-77.0618200,Active,24,1/1/99,1/1/29,10/14/29
1117074,HILLSIDE APARTMENTS,35.4662600,-81.2642800,Active,20,1/1/99,1/1/29,10/28/29
1117094,BERRY PARK APARTMENTS,34.3227600,-78.8314200,Active,18,1/1/99,1/1/29,7/5/29
1118921,SNOW HILL GREEN APARTMENTS,35.4512400,-77.6846880,Active,48,11/9/83,1/1/29,3/31/29
1121609,SANTREE COMMONS,35.8408900,-77.0798300,Active,24,1/1/99,1/1/29,12/9/29
1108458,WATERFORD PLACE APARTMENTS,36.0664460,-76.6236320,Active,50,8/1/74,1/2/29,1/1/40
1064176,,35.7741290,-78.6456290,Active,12,1/5/09,1/5/29,1/5/29
1065016,HOLMAN HOMES DEVELOPMENT,35.9883840,-78.8856200,Active,20,1/8/09,1/8/29,1/8/29
1121857,MEADOWVIEW APARTMENTS,35.8036760,-79.7964920,Active,40,3/15/96,3/7/29,3/7/29
1064734,SOUTHVIEW VILLAS,34.9726500,-78.9235400,Active,64,1/1/08,3/10/29,1/1/38
1065103,CROWELL PARK Apartments,35.5627460,-82.6386780,Active,63,1/1/08,4/1/29,1/1/38
1065530,,35.7740360,-80.8872390,Active,1,4/25/14,4/25/29,4/25/29
1063401,RALPH CLAYTON HOMES,36.0777700,-79.3875940,Active,100,4/10/19,4/30/29,4/30/29
1118678,CHURCH STREET APARTMENTS,35.5798500,-80.8143400,Active,30,6/1/79,5/19/29,3/31/39
1065200,EASTSIDE GREEN APARTMENTS III,35.0212400,-78.7868300,Active,48,5/30/09,5/30/29,9/21/32
1124609,WESTRIDGE PLACE,35.6911890,-80.5178680,Active,60,1/1/08,6/17/29,1/1/38
1126910,SHERWOOD PLACE,35.6829100,-79.8366700,Active,40,1/1/08,6/17/29,1/1/38
1065181,E-4 AND E-8 ABBY COURT,35.9063000,-79.0844300,Active,2,4/9/96,6/18/29,6/18/29
1063131,BROOKBERRY PARK APARTMENTS,34.3303800,-78.7108800,Active,50,1/1/07,6/30/29,1/1/37
1065554,THE POINTE AT TAYLOR ESTATES,34.2566370,-77.9464340,Active,144,6/30/09,6/30/29,6/30/29
1122055,JACOBS SQUARE APARTMENTS,35.0019690,-78.3123710,Active,21,7/30/99,7/22/29,7/22/29
1065524,,35.7716480,-80.8894850,Active,1,7/28/14,7/28/29,7/28/29
1065526,,35.7715440,-80.8888570,Active,1,7/28/14,7/28/29,7/28/29
1064992,,36.3660700,-80.7236700,Active,1,8/19/09,8/19/29,8/19/29
1065218,,35.2569960,-81.1764370,Active,2,8/26/09,8/26/29,8/26/29
1063182,SPRING VALLEY APARTMENTS,35.9573800,-79.9988200,Active,79,5/1/70,8/31/29,4/1/48
1063423,BURLINGTON HOMES,36.0851200,-79.4313100,Active,100,8/1/15,8/31/29,10/1/60
1065400,WAKEFIELD MANOR,35.9412730,-78.5464920,Active,39,8/31/09,8/31/29,8/31/29
1065412,HOPE CREST,35.7779660,-78.6125240,Active,10,9/8/09,9/8/29,10/8/29
1062966,CABARRUS ARMS APARTMENTS,35.4846500,-80.6332200,Active,76,6/1/74,9/29/29,9/29/29
1063361,PARKSIDE APARTMENTS,36.0509800,-79.7968700,Active,71,5/1/70,9/30/29,7/1/49
1147330,,34.2064660,-77.9426570,Active,16,10/8/09,10/8/29,10/8/29
1121065,ROBINWOOD,36.1148100,-80.0968200,Active,84,1/1/89,10/17/29,10/17/29
1064996,ACQUISITION/RENOVATION-1109 ROSEDALE AVE,35.9888330,-78.9214870,Active,1,10/26/19,10/26/29,10/26/29
1117394,WOODRIDGE VILLAGE APARTMENTS,35.2150400,-78.0603400,Active,50,5/28/80,11/14/29,11/14/29
1119687,EDGEWOOD PLACE APARTMENTS,35.3687510,-80.1943560,Active,56,3/28/77,11/23/29,11/23/29
