NHPDPropertyID,PropertyName,Latitude,Longitude,PropertyStatus,TotalUnits,EarliestStartDate,StartYear,EarliestEndDate,EarliestEndYear
1064940,PITTSBORO VILLAGE II,35.753683,-79.192504,Active,40,1/1/87,1987,1/1/02,2002
1063587,BLANTON STREET APARTMENTS A B C D,35.2877,-81.54781,Inconclusive,4,1/1/90,1990,1/1/20,2020
1063697,PINE RIDGE: LOT 1,35.81295,-77.85804,Inconclusive,1,1/1/90,1990,1/1/20,2020
1102101,QUARTERPATH VILLAGE,35.717601,-77.9179,Inconclusive,1,1/1/90,1990,1/1/20,2020
1109003,LONGVIEW APARTMENTS (MAYSVILLE),34.90534,-77.23263,Active,24,1/1/90,1990,1/1/20,2020
1116369,MEADOWGREEN APARTMENTS III,36.35136,-79.68915,Active,50,1/3/80,1980,1/1/20,2020
1063198,YADKIN APARTMENTS II,36.235588,-80.83822,Inconclusive,25,10/24/15,2015,10/23/20,2020
1004758,SHEPHERD HOUSE,36.13179,-79.7724,Active,21,6/1/06,2006,11/24/20,2020
1063247,SOUTHMONT APARTMENTS,35.73812,-81.69232,Active,29,7/1/93,1993,11/30/20,2020
1063218,HAVELOCK HILL,34.88062,-76.8889,Active,54,5/1/02,2002,12/21/20,2020
1119962,ROLLING HILLS ESTATES,36.429568,-77.908721,Active,40,12/22/80,1980,12/21/20,2020
1063205,ARC/HDS ALAMANCE CO GH #6,36.09257,-79.50924,Inconclusive,6,12/23/15,2015,12/22/20,2020
1063159,ARLINGTON HILL,36.23121,-80.83344,Active,48,1/1/04,2004,12/31/20,2020
1063476,ROLLING HILLS APARTMENTS,36.10307,-80.21826,Active,110,1/1/91,1991,1/1/21,2021
1063574,LINCOLN GROVE APARTMENTS,36.07512,-79.74621,Inconclusive,116,1/1/91,1991,1/1/21,2021
1063761,409 SYKES AVE,36.08348,-79.74773,Inconclusive,6,1/1/91,1991,1/1/21,2021
1063762,405 FLINT ST,35.27068,-81.16493,Inconclusive,9,1/1/91,1991,1/1/21,2021
1063772,KENT STREET APARTMENTS,34.22891,-77.91778,Inconclusive,12,1/1/91,1991,1/1/21,2021
1063775,LONDON CHURCH ROAD APARTMENTS,35.73916,-77.88866,Inconclusive,26,1/1/91,1991,1/1/21,2021
1063785,SENIOR VILLAGE,35.30348,-81.5236,Inconclusive,36,1/1/91,1991,1/1/21,2021
1063786,SPENCER STREET APARTMENTS,36.06816,-79.758088,Inconclusive,20,1/1/91,1991,1/1/21,2021
1063788,TATEM VILLAGE,36.29166,-76.2232,Inconclusive,19,1/1/91,1991,1/1/21,2021
1063789,TEAMWORK FOR HOUSING,35.89012,-80.06352,Inconclusive,19,1/1/91,1991,1/1/21,2021
1064594,N WARRENTON VILLAGE,36.323759,-78.146717,Inconclusive,18,1/1/91,1991,1/1/21,2021
1111251,CURRIN APARTMENTS,35.40702,-78.67755,Active,16,1/1/91,1991,1/1/21,2021
1114756,LONG CREEK COURT,36.224435,-78.451313,Active,14,1/1/91,1991,1/1/21,2021
1115861,NEW CHERRYWOOD APARTMENTS,35.37854,-81.36193,Active,48,1/1/91,1991,1/1/21,2021
1115947,PUNGO VILLAGE,35.51108,-76.6559,Active,38,1/1/91,1991,1/1/21,2021
1116867,ELK COURT APARTMENTS,36.269744,-80.851984,Active,40,1/1/91,1991,1/1/21,2021
1117164,SNOW HILL RIDGE,35.44674,-77.66344,Active,32,1/1/91,1991,1/1/21,2021
1118561,RIDGECREST APARTMENTS,35.38803,-78.53722,Active,32,1/1/91,1991,1/1/21,2021
1118812,ROCKMOOR APARTMENTS,36.16458,-81.87759,Active,12,1/1/91,1991,1/1/21,2021
1120300,SHEFFIELD MANOR,35.72868,-79.45284,Active,36,1/1/91,1991,1/1/21,2021
1121148,BROOKWAY VILLAGE,35.976489,-77.95614,Active,36,1/1/91,1991,1/1/21,2021
1121398,THE WILLOWS,36.29514,-78.5973,Active,40,1/1/91,1991,1/1/21,2021
1122255,BLACK RIVER VILLAGE APARTMENTS PHASE II,35.49645,-78.73838,Inconclusive,32,1/1/91,1991,1/1/21,2021
1063351,OAK HILL APARTMENTS,36.33454,-78.42791,Active,50,7/1/93,1993,1/20/21,2021
1063419,ASHEVILLE TERRACE APARTMENTS,35.58745,-82.52756,Active,248,1/2/18,2018,1/31/21,2021
1063496,RANDOLPH HILL APARTMENTS,35.740756,-79.651752,Active,40,7/1/93,1993,1/31/21,2021
1063065,ARC/HDS WILSON COUNTY GROUP HOME #1,35.731766,-77.911561,Active,6,2/11/16,2016,2/10/21,2021
1063111,ARC/HDS DUPLIN CO GH #1,34.898981,-78.05293,Active,6,2/11/16,2016,2/10/21,2021
1064415,,35.211214,-80.75236,Active,5,2/15/11,2011,2/15/21,2021
1023140,AS MECKLENBURG CO GH #2,35.19624,-80.78208,Active,7,12/21/92,1992,2/23/21,2021
1023148,AS MECKLENBURG CO GH #1,35.25719,-80.9223,Active,7,12/21/92,1992,2/23/21,2021
1063478,ARC/HDS LENOIR CO GROUP HOME #3,35.31552,-77.5962,Active,6,2/25/16,2016,2/28/21,2021
1063189,LAGRANGE MEADOWS APARTMENTS,35.3076,-77.78296,Active,46,7/1/93,1993,3/1/21,2021
1063091,IN-CHU-CO APARTMENTS,35.93629,-79.03149,Active,79,1/1/93,1993,3/3/21,2021
1019398,ARC/HDS ALAMANCE CO GH #7,36.08404,-79.26578,Active,7,3/11/20,2020,3/10/21,2021
1019695,ARC/HDS ALAMANCE CO GH #8,36.15777,-79.44564,Active,7,3/12/20,2020,3/11/21,2021
1117805,WALNUT TERRACE,35.85811,-77.06652,Active,50,11/20/80,1980,3/11/21,2021
1065461,,35.929388,-77.788608,Active,24,3/21/16,2016,3/21/21,2021
1023146,AS DURHAM CO GROUP HOME #1,36.08541,-78.88723,Active,7,12/11/92,1992,3/23/21,2021
1023150,AS WAKE CO GH #1,35.77998,-78.60007,Active,7,1/29/93,1993,3/23/21,2021
1063101,KOINONIA APARTMENTS,35.91599,-81.54042,Active,84,4/1/07,2007,3/24/21,2021
1065081,JEROME HOUSE,36.28892,-80.85264,Active,1,3/28/06,2006,3/28/21,2021
1008722,SELF HELP,35.98356,-78.90598,Active,2,3/29/11,2011,3/29/21,2021
1063271,SANDY RUN APARTMENTS I AND II,34.76775,-77.38789,Active,152,6/1/08,2008,3/31/21,2021
1063389,GLOVER PLAZA,34.20935,-77.92802,Active,75,12/1/91,1991,3/31/21,2021
1064955,MEADOW WOODS,36.415484,-78.953475,Active,44,3/12/80,1980,3/31/21,2021
1065378,,35.755003,-81.679564,Active,2,3/31/06,2006,3/31/21,2021
1121657,MYRTLE TERRACE APARTMENTS,35.240471,-81.04141,Active,32,4/10/79,1979,3/31/21,2021
1063125,COUNTRY VILLAGE,36.08712,-80.32802,Active,150,3/12/81,1981,4/1/21,2021
1023225,SMITHFIELD SENIOR MANOR,35.53845,-78.3574,Active,40,11/23/88,1988,4/30/21,2021
1063035,SILVER SPRINGS TERRACE - 053-002-NI,35.73692,-81.29862,Active,100,1/1/75,1975,4/30/21,2021
1063171,ERWIN ELDERLY HOUSING,35.332803,-78.672975,Active,30,5/8/86,1986,4/30/21,2021
1063820,THORNE RIDGE II APARTMENTS,35.94026,-77.76587,Active,40,1/1/99,1999,4/30/21,2021
1064200,KINGSGATE HOUSING,36.047919,-79.801229,Active,36,4/30/01,2001,4/30/21,2021
1064686,LUMBERTON W - C - K LP,34.62361,-78.99428,Active,36,4/30/01,2001,4/30/21,2021
1111836,FAIR MEADOWS APARTMENTS,36.44673,-77.67053,Active,72,7/28/78,1978,4/30/21,2021
1119443,FOREST RIDGE APARTMENTS,35.47644,-79.15372,Active,40,2/28/80,1980,4/30/21,2021
1019709,BARRINGER GARDENS,35.214994,-80.889681,Active,48,5/7/20,2020,5/6/21,2021
1063254,SMC GROUP HOME II,35.27977,-80.75867,Active,6,9/13/88,1988,5/14/21,2021
1009610,MATTHEWS HOUSE,35.8639,-78.60383,Active,6,5/16/06,2006,5/16/21,2021
1019405,ARC/HDS UNION COUNTY GROUP HOME #3,34.93332,-80.52861,Active,7,5/19/20,2020,5/18/21,2021
1023227,WHITTECAR HOME,35.80273,-78.58839,Active,7,5/26/93,1993,5/20/21,2021
1118021,BROWN'S TERRACE APARTMENTS,34.819521,-77.932564,Active,30,8/4/80,1980,5/20/21,2021
1063090,HOLLAND HOMES,36.104806,-80.229216,Active,114,6/1/11,2011,5/31/21,2021
1064952,KINGSWAY APARTMENTS,36.275078,-80.376846,Active,28,1/1/00,2000,5/31/21,2021
1065447,CITY OF RALEIGH 806-810 E JONES ST,35.781956,-78.627902,Active,4,5/31/06,2006,5/31/21,2021
1063284,VARITA COURT APARTMENTS,35.726555,-77.908475,Active,24,7/1/81,1981,6/1/21,2021
1019571,ARC/HDS LEE COUNTY GROUP HOME,35.47519,-79.23288,Active,7,6/4/20,2020,6/3/21,2021
1064592,VILLA TRACE LIMITED PARTNERSHIP,36.317201,-80.34002,Active,48,6/7/01,2001,6/7/21,2021
1063862,WOODLAND MANOR,35.73714,-81.37247,Active,48,8/23/99,1999,6/12/21,2021
1064638,WILLOW RUN LLC,35.7335,-81.71525,Active,24,6/12/01,2001,6/12/21,2021
1004627,RSS SCATTERED HOMES,35.10946,-80.79165,Active,63,8/1/07,2007,6/21/21,2021
1064172,UNDERWOOD APARTMENTS,35.99522,-78.92281,Active,44,6/21/01,2001,6/21/21,2021
1065214,NEW CONSTRUCTION OF PERMANENT HOUSING,35.258221,-81.186647,Active,4,6/28/01,2001,6/28/21,2021
1019721,MOTHER TERESA VILLA,35.114221,-80.965878,Active,13,7/1/20,2020,6/30/21,2021
1063110,LUTHERHAUS,35.737541,-81.326034,Active,50,10/1/06,2006,6/30/21,2021
1112407,CEDAR HURST APARTMENTS,36.33111,-78.39437,Active,52,6/30/80,1980,6/30/21,2021
1063314,ACADEMY VILLAGE APARTMENTS,36.09598,-78.45941,Active,50,8/1/81,1981,7/1/21,2021
1023161,JADE TREE/GLEN EDEN GROUP HOME,35.87061,-78.61395,Active,7,8/20/92,1992,7/30/21,2021
1004816,MHA HOUSING OF CENTRAL NC,35.92913,-79.97825,Active,51,7/1/07,2007,7/31/21,2021
1004945,MHA OF THE PIEDMONT,35.51957,-78.32503,Active,69,3/1/07,2007,7/31/21,2021
1004956,MHA HOUSING OF EASTERN NC,35.60419,-77.81355,Active,56,8/1/07,2007,7/31/21,2021
1004964,MHA HSG OF WESTERN NC,35.80322,-80.87816,Active,49,8/1/07,2007,7/31/21,2021
1063074,NEW BERN TOWERS,35.10406,-77.05278,Active,106,7/29/20,2020,7/31/21,2021
1063836,CROSSWINDS APARTMENTS,35.69246,-80.52364,Active,40,1/1/00,2000,8/14/21,2021
1019390,ARC/HDS LINCOLN COUNTY GROUP HOME,35.47417,-81.21981,Active,7,8/29/20,2020,8/28/21,2021
1019733,ARC/HDS CATAWBA CO GH #3,35.72777,-81.202303,Active,7,8/29/20,2020,8/28/21,2021
1019798,ARC/HDS GASTON CO GH #4,35.24996,-81.18953,Active,7,8/29/20,2020,8/28/21,2021
1019680,ARC/HDS RANDOLPH COUNTY GROUP HOME,35.6963,-79.82179,Active,7,8/30/20,2020,8/29/21,2021
1128141,,35.944357,-77.801822,Active,1,8/30/16,2016,8/30/21,2021
1063397,GIBSON VILLAGE,34.7552,-79.6124,Active,30,10/1/83,1983,8/31/21,2021
1017487,LAKE PARK APARTMENTS,36.107794,-80.09056,Inconclusive,150,10/1/81,1981,9/1/21,2021
1063300,LAKESIDE APARTMENTS,36.10977,-79.44181,Active,40,2/27/81,1981,9/1/21,2021
1000373,CAMPBELL RIDGE APARTMENTS,36.267552,-80.368758,Active,12,9/6/20,2020,9/5/21,2021
1064221,ELM GREEN APARTMENTS,34.801914,-76.859002,Active,48,1/1/99,1999,9/17/21,2021
1063158,YADKIN III APARTMENTS,36.241247,-80.708707,Active,22,9/2/16,2016,9/30/21,2021
1063160,SWANSBORO HILL APARTMENTS,34.690775,-77.137989,Active,48,1/1/02,2002,9/30/21,2021
1063280,UNITED MANOR COURTS,35.90864,-77.52585,Active,50,2/1/72,1972,9/30/21,2021
1063379,WESLEYAN HOMES OF TROY,35.38472,-79.87542,Active,40,6/2/87,1987,9/30/21,2021
1065209,,35.9377,-79.008925,Active,1,9/30/06,2006,9/30/21,2021
1065213,,35.904369,-79.064946,Active,1,9/30/06,2006,9/30/21,2021
1010175,NHS SCATTERED SITE APARTMENTS,35.603928,-82.548014,Active,16,10/20/01,2001,10/20/21,2021
1065287,,35.955545,-80.012085,Active,4,10/24/11,2011,10/24/21,2021
1147324,,35.49971,-80.849171,Active,32,10/25/01,2001,10/25/21,2021
1063373,RM WILSON APARTMENTS,35.93881,-77.79315,Active,50,12/1/81,1981,11/1/21,2021
1064947,BRAEBOURNE LP,35.873269,-78.69136,Active,50,11/6/01,2001,11/6/21,2021
1063894,WIND RIDGE,35.60431,-82.61615,Active,40,1/1/01,2001,11/15/21,2021
1064692,BAY RIVER LP,35.16557,-76.71161,Active,20,11/15/01,2001,11/15/21,2021
1023229,WNC COMMUNITY HOMES #3,35.41113,-80.549231,Active,7,2/3/93,1993,11/20/21,2021
1019794,HOFFMAN HOMES,35.232442,-81.1358,Active,81,2/1/04,2004,11/30/21,2021
1063421,HIGHLAND GREEN APARTMENTS,36.31994,-78.39155,Active,50,5/1/82,1982,11/30/21,2021
1019604,ARC/HDS GUILFORD CO GH #6,36.129709,-79.85016,Active,7,12/7/20,2020,12/6/21,2021
1115992,HOLLY PLAZA APARTMENTS,34.4938,-77.54994,Active,45,6/30/80,1980,12/8/21,2021
1023142,AS NEW HANOVER CO GH #1,34.188282,-77.903231,Active,7,11/9/92,1992,12/29/21,2021
1023144,AS NEW HANOVER CO GH #2,34.212944,-77.927274,Active,7,11/9/92,1992,12/29/21,2021
1115853,BELHAVEN SQUARE,35.540049,-76.620186,Active,32,2/17/82,1982,12/31/21,2021
1019716,ARC/HDS MECKLENBURG COUNTY GROUP HOME,35.21785,-80.74917,Active,7,1/2/21,2021,1/1/22,2022
1063238,JEFFERSON VILLAGE APARTMENTS,34.98311,-80.55618,Active,20,2/1/82,1982,1/1/22,2022
1063526,2915 LIBERTY RD,36.0301,-79.7671,Active,1,1/1/92,1992,1/1/22,2022
1063529,318 CROMER ST,35.2604,-80.88563,Active,1,1/1/92,1992,1/1/22,2022
1063536,4713 CTNEY LN,35.65078,-78.708744,Active,1,1/1/92,1992,1/1/22,2022
1063543,ALLEN STREET,36.05017,-79.79862,Active,1,1/1/92,1992,1/1/22,2022
1063549,BERN ST HOUSING,35.11135,-77.04585,Inconclusive,1,1/1/92,1992,1/1/22,2022
1063553,FISHER HEIGHTS APARTMENTS,35.77642,-78.6076,Inconclusive,2,1/1/92,1992,1/1/22,2022
1063559,HARRELL APARTMENTS,35.9798,-78.88907,Active,4,1/1/92,1992,1/1/22,2022
1063561,HARRELL-SMITH APARTMENTS,35.97966,-78.88811,Active,3,1/1/92,1992,1/1/22,2022
1063563,HOPKINS STREET APARTMENTS,35.99204,-78.88873,Inconclusive,4,1/1/92,1992,1/1/22,2022
1063565,INGLESIDE APARTMENTS,36.09488,-79.74725,Inconclusive,3,1/1/92,1992,1/1/22,2022
1063568,KINGS GRANT COURT,35.79819,-80.85478,Active,36,1/1/92,1992,1/1/22,2022
1063578,LANE WOODS: LOT #4,35.74525,-77.91497,Inconclusive,4,1/1/92,1992,1/1/22,2022
1063580,LANE WOODS: LOT #5,35.74528,-77.91499,Active,4,1/1/92,1992,1/1/22,2022
1063584,MCLOUIS CLAYTON RENTAL UNIT,35.96828,-79.98134,Active,1,1/1/92,1992,1/1/22,2022
1063590,NEALTOWN ROAD,36.10435,-79.73484,Inconclusive,1,1/1/92,1992,1/1/22,2022
1063599,SENECA WOODS,35.291591,-80.788035,Active,50,1/1/92,1992,1/1/22,2022
1063605,STEVENS APARTMENTS II,36.07391,-79.74127,Inconclusive,1,1/1/92,1992,1/1/22,2022
1063609,SUMMERFIELD APARTMENTS,35.13432,-80.94553,Active,53,1/1/92,1992,1/1/22,2022
1063613,WALNUT STREET APARTMENTS,35.38097,-77.9904,Active,55,1/1/92,1992,1/1/22,2022
1063615,WILLARD ST APARTMENTS,36.09397,-79.74777,Inconclusive,2,1/1/92,1992,1/1/22,2022
1063617,WILLIAM H BAKER JR,36.09208,-79.74525,Active,1,1/1/92,1992,1/1/22,2022
1063619,WOODCROFT APARTMENTS,35.61159,-82.55796,Active,111,1/1/92,1992,1/1/22,2022
1063797,6 QUAD OAK DR,36.09076,-79.73168,Active,1,1/1/92,1992,1/1/22,2022
1063799,1102 EASTON RD,36.09208,-79.74525,Inconclusive,1,1/1/92,1992,1/1/22,2022
1063803,1405 BROWN BLVD,36.05614,-79.75884,Inconclusive,1,1/1/92,1992,1/1/22,2022
1064308,THIRTY-SIX EAST APARTMENTS,36.116884,-80.229613,Inconclusive,42,1/1/92,1992,1/1/22,2022
1064472,RESIDENCE,35.97657,-79.69877,Inconclusive,1,1/1/92,1992,1/1/22,2022
1064482,GRAY HILL,35.37727,-77.44287,Active,40,2/1/82,1982,1/1/22,2022
1064546,FOX HOLLOW SUBDIVISION,35.73838,-78.6089,Inconclusive,1,1/1/92,1992,1/1/22,2022
1064851,TRYON GROVE APARTMENTS,35.74549,-78.68986,Active,48,1/1/92,1992,1/1/22,2022
1102057,WOODFIELD SUBDIVISION,35.7041,-77.89525,Inconclusive,1,1/1/92,1992,1/1/22,2022
1102059,WOODFIELD SUBDIVISION,35.7041,-77.89525,Inconclusive,1,1/1/92,1992,1/1/22,2022
1102061,WOODFIELD SUBDIVISION,35.7041,-77.89525,Inconclusive,1,1/1/92,1992,1/1/22,2022
1102079,WOODFIELD SUBDIVISION: LOT 7 SECTION 3,35.70388,-77.8956,Active,1,1/1/92,1992,1/1/22,2022
1103771,WOODFIELD SUBDIVISION,35.70388,-77.8956,Inconclusive,1,1/1/92,1992,1/1/22,2022
1107557,THE VILLAGE AT STONE CREEK,35.707134,-79.804916,Active,56,1/1/92,1992,1/1/22,2022
1108421,COURTNEY LANE TOWNHOMES,35.84707,-78.57059,Inconclusive,1,1/1/92,1992,1/1/22,2022
1115564,THE HEDGES APARTMENTS,35.38776,-78.54615,Active,98,10/1/78,1978,1/1/22,2022
1115610,BERRY COURT APARTMENTS,34.328419,-78.83047,Active,40,1/1/92,1992,1/1/22,2022
1115642,SCOTLAND ARMS APARTMENTS,36.12936,-77.4198,Active,20,1/1/92,1992,1/1/22,2022
1115809,NEW HILLMONT VILLAGE APARTMENTS,35.55099,-78.19837,Active,24,1/1/92,1992,1/1/22,2022
1116819,PINE RIDGE APARTMENTS,36.30955,-80.14036,Active,24,1/1/88,1988,1/1/22,2022
1117253,OAKLAND VILLAGE APARTMENTS,36.41225,-77.871858,Active,38,1/1/92,1992,1/1/22,2022
1117502,BROOKHOLLOW APARTMENTS,35.49181,-79.18627,Active,50,11/19/79,1979,1/1/22,2022
1117827,ARRINGTON PLACE,36.39326,-78.15205,Active,36,1/1/92,1992,1/1/22,2022
1117936,MOUNTAIN VILLAGE APARTMENTS,36.41829,-81.45499,Active,60,1/1/92,1992,1/1/22,2022
1118638,KINGSWOOD APARTMENTS,36.2747,-80.37605,Active,40,1/1/92,1992,1/1/22,2022
1118663,AZALEA GARDENS APARTMENTS,36.4339,-77.11274,Active,33,1/1/92,1992,1/1/22,2022
1118820,CEDAR HILL APARTMENTS,35.25637,-82.71522,Active,33,1/1/92,1992,1/1/22,2022
1120005,EDEN ELDERLY HOUSING DBA HIDDEN VALLEY APARTMENTS,36.486834,-79.742738,Active,66,1/1/92,1992,1/1/22,2022
1120193,OAK FOREST APARTMENTS,35.30873,-81.17729,Active,60,9/1/80,1980,1/1/22,2022
1120322,SUMMERFIELD APARTMENTS,35.44844,-79.15335,Active,78,2/17/78,1978,1/1/22,2022
1121805,CRESTFIELD APARTMENTS,35.38079,-78.53727,Active,36,1/1/92,1992,1/1/22,2022
1122163,VILLAGE PLACE APARTMENTS,35.008106,-78.091747,Active,40,1/1/92,1992,1/1/22,2022
1122327,MARIA PARHAM APARTMENTS,36.32657,-78.4081,Active,31,1/1/92,1992,1/1/22,2022
1151328,4709 COURTNEY LANE,35.84707,-78.57059,Inconclusive,1,1/1/92,1992,1/1/22,2022
1151330,4713 COURTNEY LANE,35.84707,-78.57059,Inconclusive,1,1/1/92,1992,1/1/22,2022
1151336,WOODFIELD SUBDIVISION,35.7041,-77.89525,Inconclusive,1,1/1/92,1992,1/1/22,2022
1151337,WOODFIELD SUBDIVISION,35.7041,-77.89525,Inconclusive,1,1/1/92,1992,1/1/22,2022
1063080,NORTH HENDERSON HEIGHTS,36.33506,-78.40428,Active,76,3/1/82,1982,1/7/22,2022
1063832,CANTERBURY PLACE,36.3356,-79.66122,Active,40,1/1/00,2000,1/17/22,2022
1063856,TROON APARTMENTS,34.7388,-76.63895,Active,44,1/1/00,2000,1/17/22,2022
1063236,PUREFOY ROAD GROUP HOME,35.89782,-79.05204,Active,7,12/7/82,1982,2/1/22,2022
1019689,ARC/HDS CARTERET CO GH #2,34.744405,-76.652068,Active,7,2/5/21,2021,2/4/22,2022
1019559,ARC/HDS ROWAN COUNTY GROUP HOME #4,35.67801,-80.45749,Active,7,2/11/21,2021,2/10/22,2022
1064500,KOINONIA II,35.91594,-81.54039,Active,42,1/1/01,2001,2/11/22,2022
1064859,HAYMOUNT MANOR HOUSING ASSOCLP,35.097549,-78.968758,Active,48,2/11/02,2002,2/11/22,2022
1064834,CANE CREEK VILLAGE,36.036624,-82.140424,Active,24,1/1/00,2000,2/12/22,2022
1019474,ARC/HDS MOORE COUNTY GROUP HOME #3,35.42715,-79.57546,Active,7,2/15/21,2021,2/14/22,2022
1063840,GRESHAM PLACE APARTMENTS,34.26758,-77.83995,Active,51,1/1/00,2000,2/16/22,2022
1019625,ARC/HDS FORSYTH CO GH #6,36.164,-80.29583,Active,7,2/20/21,2021,2/19/22,2022
1019780,ARC/HDS RUTHERFORD COUNTY GROUP HOME #2,35.34184,-81.88323,Active,7,2/20/21,2021,2/19/22,2022
1019596,ARC/HDS ALAMANCE CO GH #9,36.04914,-79.3925,Active,7,2/26/21,2021,2/25/22,2022
1019602,ARC/HDS GUILFORD CO GH #7,36.056735,-79.791328,Active,7,2/26/21,2021,2/25/22,2022
1019610,ARC/HDS GUILFORD CO GH #8,36.12613,-79.83199,Active,7,2/26/21,2021,2/25/22,2022
1019438,ARC/HDS CRAVEN CO GH #3,35.073687,-77.021878,Active,7,2/27/21,2021,2/26/22,2022
1019454,ARC/HDS WASHINGTON COUNTY GROUP HOME #3,35.8706,-76.73378,Active,7,2/27/21,2021,2/26/22,2022
1019769,ARC/HDS CUMBERLAND CO GH #7,35.13251,-78.88258,Active,7,2/27/21,2021,2/26/22,2022
1065319,,35.490395,-80.617299,Active,1,2/28/12,2012,2/28/22,2022
1019563,YADKIN HOUSE,35.66726,-80.46755,Active,67,4/1/82,1982,3/1/22,2022
1065059,DURHAM COMMUNITY LAND TRUSTEES,35.996501,-78.903731,Active,1,3/8/17,2017,3/8/22,2022
1065251,,35.25238,-80.828972,Active,2,3/22/12,2012,3/22/22,2022
1065253,,35.2525,-80.828885,Active,2,3/27/12,2012,3/27/22,2022
1064159,BEECHRIDGE APARTMENTS II,35.728229,-78.860823,Active,40,1/1/97,1997,4/16/22,2022
1064848,WEST CARY APARTMENTS,35.763357,-78.786654,Active,72,4/16/02,2002,4/16/22,2022
1064918,PARK PLACE II,35.842725,-78.633722,Active,50,4/18/02,2002,4/18/22,2022
1064628,BEECHRIDGE APARTMENTS,35.74788,-78.63722,Active,40,4/19/02,2002,4/19/22,2022
1065206,GARNER SCHOOL APARTMENTS,35.71009,-78.61095,Active,45,4/19/02,2002,4/19/22,2022
1004933,RICHMOND HILL,35.36052,-81.9609,Active,40,5/1/93,1993,4/30/22,2022
1122045,HILLCREST APARTMENTS,36.33714,-78.41669,Active,48,4/19/82,1982,4/30/22,2022
1008850,DCLT - RENTAL,35.9937,-78.92079,Active,3,5/1/12,2012,5/1/22,2022
1063107,DUPLIN COUNTY HOUSING,34.82976,-78.09206,Active,85,6/1/82,1982,5/1/22,2022
1064216,ROCKWOOD AH-1,35.97759,-78.92441,Active,20,5/1/02,2002,5/1/22,2022
1064421,,35.21103,-80.86451,Active,50,5/2/02,2002,5/2/22,2022
1108827,TYLER RUN II,36.06916,-76.59242,Active,60,8/18/76,1976,5/2/22,2022
1064830,DUNBAR PLACE APARTMENTS,35.529924,-82.521327,Active,74,9/1/87,1987,5/6/22,2022
1108513,MCKENZIE PARK APARTMENTS PHASE II,35.45771,-79.16324,Active,36,1/1/01,2001,5/8/22,2022
1063282,UMSTEAD DRIVE GROUP HOME,35.92317,-79.05933,Active,7,4/15/81,1981,5/14/22,2022
1065288,,35.940928,-80.001299,Active,1,5/30/12,2012,5/30/22,2022
1019456,PRINCE COURT APARTMENTS,35.888773,-77.529334,Active,30,7/1/82,1982,6/1/22,2022
1064672,LINCOLN TERRACE APARTMENTS,35.41002,-81.20294,Active,40,7/1/82,1982,6/1/22,2022
1063870,HIGHLAND VILLAGE,36.49761,-81.12625,Active,30,1/1/01,2001,6/20/22,2022
1116435,HOLIDAY VILLAGE APARTMENTS,34.928773,-79.79496,Active,40,9/24/81,1981,6/30/22,2022
1063245,SHERATON TOWERS,35.96041,-80.00738,Active,97,8/1/82,1982,7/1/22,2022
1065224,GOLDSBORO DEVELOPMENT CORP INC,35.366583,-77.978516,Active,12,7/23/07,2007,7/23/22,2022
1129723,CALLOWAY HOUSE MT AIRY,36.526592,-80.626816,Active,12,7/25/17,2017,7/25/22,2022
1063317,STONECROFT VILLAGE APARTMENTS,35.27942,-81.1629,Active,72,9/1/82,1982,8/1/22,2022
1064842,CROWELL SQUARE APARTMENTS,35.553962,-82.618253,Active,40,8/9/02,2002,8/9/22,2022
1063335,WILKES TOWERS,36.15969,-81.14637,Active,72,10/1/82,1982,9/1/22,2022
1118113,BALDWIN PLACE APARTMENTS,34.73742,-79.35783,Active,36,1/1/01,2001,9/25/22,2022
1065097,,35.617092,-82.555444,Active,1,9/26/02,2002,9/26/22,2022
1064154,WIND RIDGE APARTMENTS,35.59487,-82.61792,Active,40,10/7/02,2002,10/7/22,2022
1064223,M/F RENTAL HOUSING - WINDHILL,36.120124,-79.743652,Active,60,10/7/02,2002,10/7/22,2022
1064224,AUTUMN RIDGE APARTMENTS,34.78656,-77.39362,Active,48,11/5/02,2002,11/5/22,2022
1065312,ONYX ST ACQ AKA 1101 INDIANA CITY OF KANN,35.472431,-80.604929,Active,1,11/5/12,2012,11/5/22,2022
1063866,CRESTON COMMONS,35.18005,-79.4261,Active,48,1/1/01,2001,11/6/22,2022
1128118,,35.995296,-78.919334,Active,3,11/9/17,2017,11/9/22,2022
1116368,SCOTTISH WINDS APARTMENTS,34.758977,-79.475327,Active,36,1/1/01,2001,11/13/22,2022
1065185,CEDAR STREET APARTMENTS,35.78856,-78.777164,Active,4,12/5/12,2012,12/5/22,2022
1116068,WINDTREE APARTMENTS,33.92706,-78.02915,Active,24,1/1/02,2002,12/10/22,2022
1065207,PROPERTY ACQUISITION - RSI,35.934026,-79.012343,Active,1,12/31/07,2007,12/31/22,2022
1063026,HICKORY CREEK APARTMENTS,35.290761,-81.539672,Active,46,2/1/83,1983,1/1/23,2023
1063289,FOREST HILLS,35.70512,-78.62406,Inconclusive,136,2/1/83,1983,1/1/23,2023
1063621,1606 JOE LOUIS AVE,35.77027,-78.61568,Inconclusive,1,1/1/93,1993,1/1/23,2023
1063629,1924 TISCHER RD,35.74634,-78.67406,Active,1,1/1/93,1993,1/1/23,2023
1063631,1925 TISCHER RD,35.74634,-78.67406,Inconclusive,1,1/1/93,1993,1/1/23,2023
1063635,1929 TISCHER RD,35.74634,-78.67406,Active,1,1/1/93,1993,1/1/23,2023
1063636,1931 TISCHER RD,35.74634,-78.67406,Inconclusive,1,1/1/93,1993,1/1/23,2023
1063638,2120 HAWKINS ST,35.77657,-78.60702,Inconclusive,4,1/1/93,1993,1/1/23,2023
1063640,691 & 693 BODDIE ST APARTMENTS,36.3328,-78.38798,Active,2,1/1/93,1993,1/1/23,2023
1063648,ADAMS COURT APARTMENTS,35.06404,-78.89672,Active,40,1/1/93,1993,1/1/23,2023
1063650,BERN STREET HOUSING,35.11135,-77.04585,Inconclusive,1,1/1/93,1993,1/1/23,2023
1063652,CAPITAL TOWERS II,35.84584,-78.64224,Active,90,1/1/93,1993,1/1/23,2023
1063656,COLLEGE HOUSE,36.32276,-78.40303,Active,1,1/1/93,1993,1/1/23,2023
1063658,COURTYARD APARTMENTS II,36.33204,-78.43825,Active,38,1/1/93,1993,1/1/23,2023
1063660,FISKE ST APARTMENTS,35.99516,-78.87462,Active,2,1/1/93,1993,1/1/23,2023
1063662,HARLYN HOUSE APARTMENTS,35.38724,-81.38613,Inconclusive,4,1/1/93,1993,1/1/23,2023
1063668,MOORE STREET HOMES,35.713073,-77.906603,Inconclusive,8,1/1/93,1993,1/1/23,2023
1063670,NORTHSIDE APARTMENTS,35.73934,-77.8888,Inconclusive,19,1/1/93,1993,1/1/23,2023
1063672,ROBERSON HOUSING,36.33336,-78.38952,Active,2,1/1/93,1993,1/1/23,2023
1063676,SEVERSVILLE APARTMENTS,35.2408,-80.86196,Active,47,1/1/93,1993,1/1/23,2023
1063680,TRAILWOOD APARTMENTS,35.98762,-78.92259,Inconclusive,44,1/1/93,1993,1/1/23,2023
1063686,WATERFORD PLACE APARTMENTS,35.56323,-77.05559,Active,38,1/1/93,1993,1/1/23,2023
1064328,WOODBRIDGE APARTMENTS,34.24586,-77.89542,Active,43,9/30/73,1973,1/1/23,2023
1064408,MCMULLEN WOODS,35.091302,-80.852229,Active,55,1/1/93,1993,1/1/23,2023
1064468,AUNT MARY AVE,36.09017,-79.73087,Inconclusive,1,1/1/93,1993,1/1/23,2023
1064528,ROSEWOOD VILLAGE,36.45086,-78.19326,Active,40,1/1/93,1993,1/1/23,2023
1064596,DEER RUN APARTMENTS,36.323759,-78.146717,Active,31,1/1/93,1993,1/1/23,2023
1064632,SANDPIPER SQUARE APARTMENTS,36.18743,-77.09387,Active,24,1/1/93,1993,1/1/23,2023
1064887,GUILFORD GREENE,36.144568,-79.585608,Active,16,1/1/93,1993,1/1/23,2023
1064895,EPSOM ROAD APARTMENTS,36.3243,-78.409721,Active,2,1/1/93,1993,1/1/23,2023
1064898,KEENE STREET APARTMENTS OF HENDERSON,36.3243,-78.409721,Active,5,1/1/93,1993,1/1/23,2023
1064901,WEST PARK APARTMENTS,35.991628,-78.91866,Active,10,1/1/93,1993,1/1/23,2023
1064916,LYNNBANK HOMES,36.19619,-78.436493,Inconclusive,2,1/1/93,1993,1/1/23,2023
1106650,WESTOAKS APARTMENTS,35.81249,-78.62807,Active,50,1/1/93,1993,1/1/23,2023
1107497,PARK GLEN,35.79982,-78.60634,Inconclusive,1,1/1/93,1993,1/1/23,2023
1107535,AVONLEA APARTMENTS,35.854892,-78.576185,Active,44,1/1/93,1993,1/1/23,2023
1108526,BERKSHIRE DOWNS,35.88359,-78.55827,Inconclusive,1,1/1/93,1993,1/1/23,2023
1108530,BERKSHIRE DOWNS,35.88359,-78.55827,Inconclusive,1,1/1/93,1993,1/1/23,2023
1108538,BERKSHIRE DOWNS,35.88389,-78.55871,Inconclusive,1,1/1/93,1993,1/1/23,2023
1108540,BERKSHIRE DOWNS,35.88389,-78.55871,Inconclusive,1,1/1/93,1993,1/1/23,2023
1108542,BERKSHIRE DOWNS,35.88389,-78.55871,Inconclusive,1,1/1/93,1993,1/1/23,2023
1112885,OAK ESTATES,34.61987,-78.60759,Active,56,6/9/88,1988,1/1/23,2023
1115001,BAILEY PLACE,35.57851,-78.79517,Active,48,7/30/76,1976,1/1/23,2023
1115914,ADKINS GLEN,36.46988,-79.90788,Active,24,1/1/93,1993,1/1/23,2023
1117680,SHAMROCK TERRACE APARTMENTS,36.39544,-80.70947,Active,32,1/1/93,1993,1/1/23,2023
1117743,GRIFTON MANOR APARTMENTS,35.37102,-77.42518,Active,40,1/1/93,1993,1/1/23,2023
1119921,JOSEPH E PRICE ELDERLY CENTER,35.54608,-78.28882,Active,32,1/1/93,1993,1/1/23,2023
1120455,RIDGEMONT PLACE APARTMENTS,36.41812,-79.97937,Active,36,1/1/93,1993,1/1/23,2023
1120882,WOOD CREEK APARTMENTS,35.258516,-81.571337,Active,24,1/1/93,1993,1/1/23,2023
1121171,GIBSON MANOR APARTMENTS,34.7604,-79.6024,Active,24,1/1/93,1993,1/1/23,2023
1121214,SALEM WOODS APARTMENTS,35.04961,-78.49483,Active,24,1/1/93,1993,1/1/23,2023
1121354,SKYLAND APARTMENTS,35.92066,-81.51543,Active,34,1/1/93,1993,1/1/23,2023
1121877,MALLARD CREEK APARTMENTS,35.299082,-76.781874,Active,24,1/1/93,1993,1/1/23,2023
1122194,MOUNTAIN VIEW APARTMENTS,36.19878,-81.15037,Active,24,1/1/93,1993,1/1/23,2023
1122214,RICHLAND,36.282302,-77.279778,Active,24,1/1/93,1993,1/1/23,2023
1122332,PINE RIDGE PLACE,35.005676,-80.206814,Active,16,1/1/93,1993,1/1/23,2023
1010228,,35.954221,-79.099982,Active,2,1/9/13,2013,1/9/23,2023
1065171,,35.907796,-79.068005,Active,4,1/9/13,2013,1/9/23,2023
1062968,OAKLEY SQUARE APARTMENTS,36.0049,-78.86799,Active,100,1/1/03,2003,1/31/23,2023
1121455,Twin Oaks Apartments,35.44032,-78.43349,Active,41,9/1/83,1983,1/31/23,2023
1065201,RENTAL PROPERTY ACQUISITION,35.92217,-79.036336,Active,3,2/25/13,2013,2/25/23,2023
1126912,EVANS POINTE II APARTMENTS,34.13516,-78.86995,Active,32,2/27/03,2003,2/27/23,2023
1064498,KINSTON HOTEL,35.2651,-77.5809,Active,38,1/1/88,1988,2/28/23,2023
1063154,SANDY RIDGE APARTMENTS,34.33112,-78.68879,Active,26,4/1/83,1983,3/1/23,2023
1019412,GREEN ACRES APARTMENTS,35.730488,-81.779423,Active,30,3/25/13,2013,3/24/23,2023
1121859,PIREWAY PLACE,34.1434,-78.86973,Active,48,1/1/01,2001,3/28/23,2023
1019630,ARC/HDS FORSYTH CO GH #3,36.04004,-80.29118,Active,6,3/25/18,2018,3/31/23,2023
1019701,ARC/HDS ORANGE COUNTY GROUP HOME #1,35.91618,-79.08827,Active,6,3/31/18,2018,3/31/23,2023
1063407,ROBIN RIDGE APARTMENTS,35.32259,-83.80408,Active,20,5/1/83,1983,4/1/23,2023
1065046,HFNH INC - 1904 COLE MILL ROAD,36.044408,-78.963987,Active,10,4/23/13,2013,4/23/23,2023
1019340,ARC/HDS VANCE COUNTY GROUP HOME #2,36.32667,-78.44117,Active,6,4/23/18,2018,4/30/23,2023
1019400,ARC/HDS ALAMANCE CO GH #1,36.0902,-79.27449,Active,6,4/27/18,2018,4/30/23,2023
1019426,ROLLINS APARTMENTS,35.303412,-81.022393,Active,34,4/27/18,2018,4/30/23,2023
1019561,ARC/HDS ROWAN COUNTY GROUP HOME #2,35.66273,-80.49309,Active,6,4/30/18,2018,4/30/23,2023
1019597,ARC/HDS MONTGOMERY COUNTY GROUP HOME,35.35451,-79.8844,Active,7,4/29/18,2018,4/30/23,2023
1019601,ARC/HDS POLK COUNTY GROUP HOME,35.22643,-82.23667,Active,6,4/3/18,2018,4/30/23,2023
1019608,ARC/HDS GUILFORD CO GH #1,36.04296,-79.86405,Active,7,4/30/18,2018,4/30/23,2023
1019631,ARC/HDS FORSYTH CO GH #4,36.1433,-80.20876,Active,6,4/10/18,2018,4/30/23,2023
1019692,ARC/HDS ALAMANCE COUNTY GH #2,36.09361,-79.41291,Active,6,4/23/18,2018,4/30/23,2023
1019776,ARC/HDS CUMBERLAND CO GH #1,35.09039,-78.96297,Active,6,4/15/18,2018,4/30/23,2023
1116868,WILLOW OAKS LTD,35.80181,-81.42144,Active,34,8/12/83,1983,4/30/23,2023
1117351,ROCKY KNOLL APARTMENTS,35.35477,-79.90367,Active,44,6/10/81,1981,4/30/23,2023
1120353,GLEN APARTMENTS (THE),35.90394,-80.54463,Active,32,7/29/83,1983,4/30/23,2023
1019444,ARC/HDS CARTERET CO GH,34.79611,-76.86988,Active,6,5/2/18,2018,5/1/23,2023
1063070,CONWAY VILLAGE APARTMENTS,36.44653,-77.22321,Active,32,6/1/83,1983,5/1/23,2023
1063425,MADISON HILL APARTMENTS,34.32805,-78.70388,Active,35,12/1/83,1983,5/1/23,2023
1009747,TILGHMAN SQUARE II LIMITED PARTNERSHIP,35.314591,-78.587877,Active,23,5/29/03,2003,5/29/23,2023
1019420,ARC/HDS SURRY COUNTY GROUP HOME #3,36.50165,-80.60338,Active,7,5/11/18,2018,5/31/23,2023
1019549,ARC/HDS PERSON COUNTY GROUP HOME #1,36.39605,-78.98159,Active,6,5/4/18,2018,5/31/23,2023
1019581,ARC/HDS JOHNSTON GROUP HOME - SM,35.511555,-78.338754,Active,6,5/11/18,2018,5/31/23,2023
1019739,ARC/HDS DURHAM CO GH #5,36.01636,-78.85478,Active,6,5/19/18,2018,5/31/23,2023
1019751,ARC/HDS ROCKINGHAM COUNTY GROUP HOME #1,36.50421,-79.77417,Active,6,5/15/18,2018,5/31/23,2023
1019763,ARC/HDS CUMBERLAND CO GH #4,35.09939,-78.93076,Active,6,5/7/18,2018,5/31/23,2023
1019782,ARC/HDS JOHNSTON CO GROUP HOME- FO,35.43999,-78.42353,Active,6,5/11/18,2018,5/31/23,2023
1019784,ARC/HDS SAMPSON COUNTY GROUP HOME #1,34.78915,-78.39415,Active,6,5/20/18,2018,5/31/23,2023
1019796,ARC/HDS GASTON CO APARTMENTS,35.258479,-81.176214,Active,8,5/11/18,2018,5/31/23,2023
1115637,HERITAGE VILLAGE,35.30746,-81.85991,Active,24,8/30/82,1982,5/31/23,2023
1119961,MEADOWBROOK APARTMENTS,36.128968,-77.411162,Active,50,5/30/78,1978,5/31/23,2023
1063127,DARTMOUTH COURT APARTMENTS,36.06507,-79.85814,Active,28,1/1/84,1984,6/1/23,2023
1063383,GREEN HILL,35.837634,-80.249613,Active,35,11/1/83,1983,6/1/23,2023
1063391,GRANITE VILLAGE APARTMENTS,35.80166,-81.41597,Active,24,1/1/84,1984,6/1/23,2023
1004605,GRIER PARK APARTMENTS,35.19833,-80.80488,Active,50,3/1/84,1984,6/26/23,2023
1019609,ARC/HDS BEAUFORT CO GH #1,35.54483,-77.04532,Active,6,6/23/18,2018,6/30/23,2023
1019678,ARC/HDS HARNETT CO GH,35.51592,-78.74358,Active,6,7/1/18,2018,6/30/23,2023
1063302,LITTLE ROCK APARTMENTS,35.209293,-80.917387,Active,242,1/1/03,2003,6/30/23,2023
1107232,BRADFORD PLACE,35.574325,-78.802464,Active,64,1/1/96,1996,6/30/23,2023
1063343,LAURENCE MANOR APARTMENTS,36.02268,-79.82909,Active,32,8/1/83,1983,7/1/23,2023
1063924,SILVER SPRING APARTMENTS,35.81619,-78.33275,Active,33,1/1/02,2002,7/10/23,2023
1128138,,35.776685,-78.639847,Active,1,7/10/03,2003,7/10/23,2023
1009062,GOLDSBORO DEVELOPMENT CORPORATION,35.37363,-77.977663,Active,3,7/24/08,2008,7/24/23,2023
1019358,ARC/HDS CUMBERLAND CO GH #5,34.9736,-78.95119,Active,7,7/20/18,2018,7/31/23,2023
1019374,ARC/HDS SCOTLAND CO GH #1,34.76014,-79.46346,Active,7,7/22/18,2018,7/31/23,2023
1019575,ARC/HDS CLEVELAND CO GH,35.18542,-81.59382,Active,7,7/26/18,2018,7/31/23,2023
1019619,ARC/HDS WILSON COUNTY GROUP HOME #3,35.737897,-77.948411,Active,7,7/27/18,2018,7/31/23,2023
1019767,ARC/HDS CUMBERLAND CO GH #6,35.02452,-78.89913,Active,7,7/20/18,2018,7/31/23,2023
1019804,ARC/HDS SCOTLAND CO GH #2,34.761491,-79.613492,Active,7,7/22/18,2018,7/31/23,2023
1023231,WNC MADISON COUNTY GROUP HOME,35.89349,-82.83435,Active,7,2/2/90,1990,7/31/23,2023
1115677,MEADOWS THE,34.993835,-79.228482,Active,30,9/9/83,1983,7/31/23,2023
1063140,GATEWAY VILLAGE,36.05555,-79.10903,Active,64,9/1/83,1983,8/1/23,2023
1063252,BAY TREE APARTMENTS,35.58534,-78.80472,Active,50,9/1/83,1983,8/1/23,2023
1063298,LYNNHAVEN APARTMENTS,35.97393,-78.8479,Active,75,9/1/83,1983,8/1/23,2023
1063341,WALNUT WEST APARTMENTS,36.30723,-76.21985,Active,34,9/1/83,1983,8/1/23,2023
1063411,RICHMOND VILLAGE APARTMENTS,34.896526,-79.697848,Active,40,9/1/83,1983,8/1/23,2023
1063417,LIBERTY VILLAGE APARTMENTS,35.85053,-79.57365,Active,46,9/1/83,1983,8/1/23,2023
1063442,MEADOW WOODS APARTMENTS,34.502762,-79.109441,Active,50,9/1/83,1983,8/1/23,2023
1063468,WESTSIDE APARTMENTS,35.26397,-80.91993,Active,50,9/1/83,1983,8/1/23,2023
1065042,DENSON APARTMENTS,36.021983,-78.915773,Active,38,9/1/83,1983,8/1/23,2023
1124519,KINGS MILL,34.802023,-76.861402,Active,44,1/1/02,2002,8/5/23,2023
1063872,HUNT PARK APARTMENTS,36.159657,-80.281912,Active,60,1/1/01,2001,8/15/23,2023
1019442,ARC/HDS AVERY CO GH,36.08187,-81.93209,Active,7,8/2/18,2018,8/31/23,2023
1019448,ARC/HDS WILKES COUNTY GROUP HOME,36.17139,-81.14699,Active,6,8/21/18,2018,8/31/23,2023
1019452,ARC/HDS GRANVILLE CO GH,36.31697,-78.60724,Active,7,8/28/18,2018,8/31/23,2023
1019480,ARC/HDS EDGECOMBE/NASH GH #1,35.92935,-77.77309,Active,6,8/4/18,2018,8/31/23,2023
1019685,ARC/HDS BUNCOMBE CO ICF/MR,35.57669,-82.53487,Active,7,9/1/18,2018,8/31/23,2023
1116412,PHILLIPS VILLAGE,35.235186,-81.660737,Active,32,8/30/82,1982,8/31/23,2023
1063129,COTTONDALE APARTMENTS,35.30673,-78.60907,Active,24,10/1/83,1983,9/1/23,2023
1063196,SCOTLAND MANOR APARTMENTS,34.77076,-79.48049,Active,60,9/29/83,1983,9/1/23,2023
1063918,PERFECTION PARK SENIOR APARTMENTS,35.278809,-81.053782,Active,50,1/1/02,2002,9/9/23,2023
1011743,,35.215868,-80.867074,Active,4,9/10/08,2008,9/10/23,2023
1019396,ARC/HDS CATAWBA CO GH #1,35.58007,-81.20318,Active,7,9/9/18,2018,9/30/23,2023
1019410,ARC/HDS BURKE CO GH #1,35.750159,-81.674331,Active,6,9/23/18,2018,9/30/23,2023
1019551,ARC/HDS PERSON COUNTY GROUP HOME #2 (ICF/MR),36.40374,-78.98682,Active,6,9/29/18,2018,9/30/23,2023
1019599,ARC/HDS NEW VIEW APARTMENTS,35.20418,-82.23675,Active,8,9/10/18,2018,9/30/23,2023
1019611,ARC/HDS BEAUFORT CO GH #2,35.543227,-77.039271,Active,6,9/13/18,2018,9/30/23,2023
1019778,ARC/HDS RUTHERFORD COUNTY GROUP HOME #1,35.33451,-81.88118,Active,7,9/16/18,2018,9/30/23,2023
1063217,OAK VILLA APARTMENTS,35.32834,-81.86564,Active,25,9/29/18,2018,9/30/23,2023
1065199,,35.965604,-79.045801,Active,1,9/30/08,2008,9/30/23,2023
1008473,TWIN CEDARS II APARTMENTS,35.75694,-81.29928,Active,72,11/1/05,2005,10/1/23,2023
1063021,CARRIAGE HOUSE APARTMENTS,36.170954,-77.671853,Active,51,11/1/83,1983,10/1/23,2023
1063081,ARCADIA VILLAGE APARTMENTS,34.37576,-78.32333,Active,30,11/1/83,1983,10/1/23,2023
1063192,PINEWOOD APARTMENTS,35.31831,-78.62583,Active,60,11/1/83,1983,10/1/23,2023
1063207,TORHUNTA APARTMENTS,35.539762,-77.98597,Active,40,11/1/83,1983,10/1/23,2023
1063313,SOUTH VILLAGE APARTMENTS,36.47502,-80.61461,Active,40,11/1/83,1983,10/1/23,2023
1063333,VIRGINIA DARE APARTMENTS,36.29914,-76.22051,Active,68,11/1/83,1983,10/1/23,2023
1064944,OLDE NORTH VILLAGE,36.154584,-80.28883,Active,48,11/1/83,1983,10/1/23,2023
1008453,BALSAM GROVE APARTMENTS,35.22993,-82.73732,Active,40,1/1/84,1984,10/17/23,2023
1012770,,35.816253,-78.333512,Active,33,10/29/03,2003,10/29/23,2023
1019362,ARC/HDS ONSLOW COUNTY GROUP HOME #1,34.74608,-77.36802,Active,6,11/1/18,2018,10/31/23,2023
1019403,ARC/HDS DAVIE CO GH,35.90459,-80.54479,Active,7,10/27/18,2018,10/31/23,2023
1019424,ARC/HDS SURRY COUNTY GROUP HOME #1,36.492371,-80.602942,Active,6,10/21/18,2018,10/31/23,2023
1019577,ARC/HDS CHATHAM COUNTY GH #1,35.72846,-79.46181,Active,6,10/6/18,2018,10/31/23,2023
1019723,ARC/HDS GASTON CO GH #1,35.39483,-81.37984,Active,6,10/20/18,2018,10/31/23,2023
1019753,ARC/HDS PASQUOTANK COUNTY GROUP HOME,36.306109,-76.218005,Active,6,10/20/18,2018,10/31/23,2023
1065252,,36.073671,-79.758115,Active,6,11/6/13,2013,11/6/23,2023
1065044,,36.005713,-78.887353,Active,1,11/10/08,2008,11/10/23,2023
1128112,GRANT STATION APARTMENTS,35.255276,-80.878843,Active,12,11/15/18,2018,11/15/23,2023
1064081,SPAULDING WOODS II APARTMENTS,35.6644,-82.03421,Active,44,1/1/02,2002,11/26/23,2023
1019603,ARC/HDS CRAVEN CO GH #1,35.299242,-77.149215,Active,6,11/18/18,2018,11/30/23,2023
1019731,ARC/HDS CABARRUS CO GH #3,35.422075,-80.58108,Active,6,11/19/18,2018,11/30/23,2023
1062960,CALIFORNIA ARMS APARTMENTS,35.668304,-82.013435,Active,30,1/1/84,1984,12/1/23,2023
1063076,CRESTVIEW APARTMENTS,36.01262,-78.94157,Active,65,1/1/84,1984,12/1/23,2023
1064333,JFK TOWERS,36.064507,-78.904736,Active,178,1/1/84,1984,12/1/23,2023
1118428,RAINTREE APARTMENTS,34.835574,-78.028647,Active,24,1/1/03,2003,12/30/23,2023
1120446,CREEKRIDGE APARTMENTS,35.77319,-78.20859,Active,25,1/1/02,2002,12/30/23,2023
1019432,ARC/HDS NASH COUNTY GROUP HOME,35.97012,-77.95662,Active,7,12/7/18,2018,12/31/23,2023
1019595,ARC/HDS BURKE CO GH #2,35.92947,-81.1789,Active,6,12/9/18,2018,12/31/23,2023
1019612,ARC/HDS HAYWOOD CO GH #2,35.47095,-82.97948,Active,7,12/22/18,2018,12/31/23,2023
1062998,ARC/HDS CHOWAN CO GH #1,36.07012,-76.61488,Active,6,12/20/18,2018,12/31/23,2023
1063049,ARC/HDS STOKES COUNTY GH #2,36.27984,-80.38502,Active,6,12/30/18,2018,12/31/23,2023
1115286,VALDESE VILLAGE APARTMENTS,35.73677,-81.54509,Active,34,3/5/84,1984,12/31/23,2023
1008459,ROCHELLE MANOR APARTMENTS,35.990474,-78.849612,Active,75,2/1/84,1984,1/1/24,2024
1063696,1005 PARKTHROUGH ST,35.78573,-78.78475,Inconclusive,1,1/1/94,1994,1/1/24,2024
1063698,1006 PARKTHROUGH ST,35.78573,-78.78475,Inconclusive,1,1/1/94,1994,1/1/24,2024
1063700,1007 PARKTHROUGH ST,35.78573,-78.78475,Inconclusive,1,1/1/94,1994,1/1/24,2024
1063703,1009 PARKTHROUGH ST,35.78573,-78.78475,Inconclusive,1,1/1/94,1994,1/1/24,2024
1063705,1010 & 1012 HARRIET STREET,36.312605,-78.396058,Active,2,1/1/94,1994,1/1/24,2024
1063707,1010 PARKTHROUGH ST,35.78573,-78.78475,Inconclusive,1,1/1/94,1994,1/1/24,2024
1063709,1011 PARKTHROUGH ST,35.78573,-78.78475,Inconclusive,1,1/1/94,1994,1/1/24,2024
1063713,1013 PARKTHROUGH ST,35.78573,-78.78475,Inconclusive,1,1/1/94,1994,1/1/24,2024
1063717,1015 PARKTHROUGH ST,35.78573,-78.78475,Inconclusive,1,1/1/94,1994,1/1/24,2024
1063719,1016 PARKTHROUGH ST,35.78573,-78.78475,Inconclusive,1,1/1/94,1994,1/1/24,2024
1063725,1019 PARKTHROUGH ST,35.78573,-78.78475,Inconclusive,1,1/1/94,1994,1/1/24,2024
1063726,1027 & 1029 MAPLE STREET,36.31741,-78.40492,Active,2,1/1/94,1994,1/1/24,2024
1063727,103-106 HORSE CREEK ROAD,36.412163,-78.154817,Inconclusive,4,1/1/94,1994,1/1/24,2024
1063728,1031 & 1033 MAPLE STREET,36.31741,-78.40492,Active,2,1/1/94,1994,1/1/24,2024
1063730,1116 MARTIN ST,36.05829,-79.78248,Inconclusive,1,1/1/94,1994,1/1/24,2024
1063731,B&B PROPERTIES,35.74523,-77.91495,Inconclusive,4,1/1/94,1994,1/1/24,2024
1063732,1608 PECAN CT N,35.74539,-77.91485,Inconclusive,4,1/1/94,1994,1/1/24,2024
1063733,1802 RUFFLELEAF CIR SE,35.70469,-77.89432,Inconclusive,1,1/1/94,1994,1/1/24,2024
1063734,1921 TISCHER RD,35.74634,-78.67406,Active,1,1/1/94,1994,1/1/24,2024
1063736,206 & 208 SWAIN STREET,36.32046,-78.39124,Active,2,1/1/94,1994,1/1/24,2024
1063737,3410 CALUMET PL,36.08091,-79.74915,Active,3,1/1/94,1994,1/1/24,2024
1063739,515 & 517 ORANGE ST,36.30165,-78.58744,Active,2,1/1/94,1994,1/1/24,2024
1063740,617 CAROLINA AVE,35.7833,-78.71662,Active,1,1/1/94,1994,1/1/24,2024
1063741,619 CAROLINA AVE,35.7833,-78.71662,Active,1,1/1/94,1994,1/1/24,2024
1063742,621 CAROLINA AVE,35.7833,-78.71662,Active,1,1/1/94,1994,1/1/24,2024
1063743,625 CAROLINA AVE,35.7833,-78.71662,Inconclusive,1,1/1/94,1994,1/1/24,2024
1063744,697 & 699 BECK AVENUE,36.33486,-78.40542,Active,2,1/1/94,1994,1/1/24,2024
1063745,728 ROBERSON ST,36.33339,-78.38934,Active,1,1/1/94,1994,1/1/24,2024
1063746,734 S SCIENTIFIC ST,35.96878,-79.95444,Active,1,1/1/94,1994,1/1/24,2024
1063747,736 S SCIENTIFIC ST,35.96878,-79.95444,Inconclusive,1,1/1/94,1994,1/1/24,2024
1063748,8253 MERRIWEATHER CIR,35.88556,-78.55793,Inconclusive,1,1/1/94,1994,1/1/24,2024
1063749,8255 MERRIWEATHER CIR,35.88556,-78.55793,Inconclusive,1,1/1/94,1994,1/1/24,2024
1063750,8257 MERRIWEATHER CIR,35.88556,-78.55793,Inconclusive,1,1/1/94,1994,1/1/24,2024
1063751,8259 MERRIWEATHER CIR,35.88556,-78.55793,Inconclusive,1,1/1/94,1994,1/1/24,2024
1063752,8261 MERRIWEATHER CIR,35.88556,-78.55793,Active,1,1/1/94,1994,1/1/24,2024
1063753,8263 MERRIWEATHER CIR,35.88556,-78.55793,Inconclusive,1,1/1/94,1994,1/1/24,2024
1063755,936A & 936B SOUTH MAIN STREET,36.08879,-78.30854,Active,2,1/1/94,1994,1/1/24,2024
1063756,BERKSHIRE DOWNS II,35.88556,-78.55793,Active,1,1/1/94,1994,1/1/24,2024
1063792,BERRYMAN SQUARE,36.12481,-79.78766,Active,44,1/1/94,1994,1/1/24,2024
1063794,BURNSIDE VILLAGE APARTMENTS,35.417751,-77.590263,Active,16,1/1/94,1994,1/1/24,2024
1063796,CARVER CREEK APARTMENTS,36.04395,-78.8914,Active,48,1/1/94,1994,1/1/24,2024
1063798,DOBBINS HILL II,35.94422,-79.01443,Active,55,1/1/94,1994,1/1/24,2024
1063800,HARAMBEE SQUARE APARTMENTS,35.94128,-77.79493,Active,24,1/1/94,1994,1/1/24,2024
1063801,HORSE CREEK APARTMENTS,36.41184,-78.15409,Active,4,1/1/94,1994,1/1/24,2024
1063804,WOODFIELD SUBDIVISION: LOT 6 SECTION 4,35.70469,-77.89432,Inconclusive,1,1/1/94,1994,1/1/24,2024
1063805,WOODFIELD SUBDIVISION: LOT 7 SECTION 4,35.70469,-77.89432,Active,1,1/1/94,1994,1/1/24,2024
1063806,LOVETT SQUARE,35.98564,-78.88998,Active,60,1/1/94,1994,1/1/24,2024
1063807,MAPLE STREET APARTMENTS,36.29963,-78.591292,Active,2,1/1/94,1994,1/1/24,2024
1063808,MARTIN DUPLEX #2,35.40996,-81.36648,Active,2,1/1/94,1994,1/1/24,2024
1063809,OXFORD COMMONS ELDERLY HOUSING,36.04191,-78.88892,Active,102,1/1/94,1994,1/1/24,2024
1063811,SEMINARY LANE TOWNHOMES,35.74144,-78.62924,Inconclusive,4,1/1/94,1994,1/1/24,2024
1063813,WEST PARK ST APARTMENTS,35.78511,-78.78343,Active,2,1/1/94,1994,1/1/24,2024
1063814,WILLOW POND APARTMENTS,34.235052,-77.901656,Active,40,1/1/94,1994,1/1/24,2024
1064386,ORCHARD VIEW APARTMENTS,35.162312,-83.39637,Active,48,1/1/94,1994,1/1/24,2024
1064490,WHITTED FOREST,36.08659,-79.11789,Inconclusive,36,1/1/94,1994,1/1/24,2024
1064584,CHARLES PLACE,35.275625,-81.565288,Inconclusive,40,1/1/94,1994,1/1/24,2024
1064684,HARNETT MANOR,35.39093,-78.86048,Inconclusive,2,1/1/94,1994,1/1/24,2024
1064783,THE BELVEDERE APARTMENTS,35.26375,-81.16784,Active,31,1/1/94,1994,1/1/24,2024
1064852,MARTIN DUPLEX #1,35.410963,-81.366685,Active,2,1/1/94,1994,1/1/24,2024
1064933,CAROLINA WOODS APARTMENTS II,36.12184,-79.75112,Active,40,1/1/94,1994,1/1/24,2024
1102085,WOODFIELD SUBDIVISION: LOT 1 SECTION 4,35.70388,-77.8956,Active,1,1/1/94,1994,1/1/24,2024
1102087,WOODFIELD SUBDIVISION: LOT 2 SECTION 4,35.70388,-77.8956,Active,1,1/1/94,1994,1/1/24,2024
1106449,JUNIPER POINT APARTMENTS,35.463458,-79.174903,Active,56,1/1/94,1994,1/1/24,2024
1106459,MAPLE RIDGE APARTMENTS,35.651546,-78.822672,Active,50,1/1/94,1994,1/1/24,2024
1106562,WELLINGTON PLACE,34.19759,-77.924927,Active,34,1/1/94,1994,1/1/24,2024
1106849,NEW GARDEN PLACE,36.09637,-79.75387,Active,76,1/1/94,1994,1/1/24,2024
1107105,WALNUT WOODS APARTMENTS,35.76536,-78.58093,Active,36,1/1/94,1994,1/1/24,2024
1107307,TIMBERWOOD APARTMENTS PHASE II,35.491699,-79.179901,Active,36,1/1/94,1994,1/1/24,2024
1107361,CAROLINA TERRACE APARTMENTS,35.748315,-78.660377,Active,28,1/1/94,1994,1/1/24,2024
1115554,PINE RIDGE APARTMENTS,36.0829,-81.93295,Active,32,1/1/94,1994,1/1/24,2024
1115646,ELM TREE APARTMENTS,34.48262,-78.65761,Active,20,1/1/94,1994,1/1/24,2024
1115725,THE MEADOWS APARTMENTS,35.52192,-78.29312,Active,114,3/1/78,1978,1/1/24,2024
1115948,BUNN MANOR APARTMENTS,35.9549,-78.2539,Active,24,1/1/94,1994,1/1/24,2024
1116482,ALBEMARLE VILLAGE APARTMENTS,36.18222,-76.46468,Active,36,1/1/94,1994,1/1/24,2024
1117275,MAPLE RIDGE APARTMENTS,36.27031,-80.84091,Active,38,1/1/94,1994,1/1/24,2024
1117542,AUSTIN MANOR,35.51016,-78.34655,Active,48,4/22/85,1985,1/1/24,2024
1117612,CHADWICK APARTMENTS,36.50737,-79.7786,Active,48,1/1/94,1994,1/1/24,2024
1117659,COBBLESTONE APARTMENTS,35.59518,-78.80252,Active,33,1/1/94,1994,1/1/24,2024
1117682,RANSOM STREET APARTMENTS,36.12945,-81.67319,Active,13,1/1/94,1994,1/1/24,2024
1117745,MCLURD MANOR,35.35853,-81.08294,Active,34,1/1/94,1994,1/1/24,2024
1118157,ROBERSONVILLE MANOR,35.822125,-77.262459,Active,12,1/1/94,1994,1/1/24,2024
1118201,BRITISH WOODS APARTMENTS,36.43741,-77.6511,Active,26,1/1/94,1994,1/1/24,2024
1118452,PINE GATE APARTMENTS,36.291973,-76.995649,Active,56,1/1/94,1994,1/1/24,2024
1119198,WOODFIELD APARTMENTS,34.48477,-79.11317,Active,32,1/1/94,1994,1/1/24,2024
1119378,RIVER BEND APARTMENTS,34.31129,-79.02826,Active,16,1/1/94,1994,1/1/24,2024
1119817,CLAYTON MANOR APARTMENTS,35.63712,-78.44775,Active,56,12/30/93,1993,1/1/24,2024
1119947,RIVERSIDE APARTMENTS,35.46581,-81.26531,Active,34,1/1/94,1994,1/1/24,2024
1120272,ROWLAND MANOR APARTMENTS,34.532141,-79.289622,Active,24,12/17/93,1993,1/1/24,2024
1120393,PINE KNOLL MANOR II,35.52015,-78.36287,Active,48,11/27/84,1984,1/1/24,2024
1120645,BRENTWOOD APARTMENTS,34.9588,-77.95993,Active,24,1/1/94,1994,1/1/24,2024
1120912,GARDEN TERRACE APARTMENTS,36.48234,-80.60327,Active,36,1/1/94,1994,1/1/24,2024
1122322,THE VILLAGE APARTMENTS,35.324247,-78.606911,Active,34,3/1/80,1980,1/1/24,2024
1151338,WOODFIELD SUBDIVISION: LOT 4 SECTION 4,35.70388,-77.8956,Inconclusive,1,1/1/94,1994,1/1/24,2024
1064680,LAGRANGE VILLAS LIMITED PARTNERSHIP,35.3097,-78.6082,Active,23,1/5/04,2004,1/5/24,2024
1064993,BOH INC-RENTALS,35.990782,-78.916627,Active,2,3/24/11,2011,1/10/24,2024
1146693,,35.4827,-80.634665,Active,1,1/11/19,2019,1/11/24,2024
1063113,ARC/HDS DURHAM CO GH #3,35.91655,-78.90266,Active,6,1/20/19,2019,1/19/24,2024
1117781,OXFORD PLACE APARTMENTS,34.915338,-77.768356,Active,24,1/1/03,2003,1/28/24,2024
1019368,ARC/HDS CABARRUS CO GH #1,35.494486,-80.605134,Active,6,1/28/19,2019,1/31/24,2024
1062976,ARC/HDS ROBESON COUNTY APARTMENTS,34.73108,-79.3588,Active,9,1/6/19,2019,1/31/24,2024
1063015,ARC/HDS STOKES CO GH #3(ICF/MR),36.28074,-80.36645,Active,6,1/31/19,2019,1/31/24,2024
1063082,ARC/HDS DURHAM CO GH #4,35.99389,-78.85279,Active,6,1/5/19,2019,1/31/24,2024
1063114,ARC/HDS MOORE COUNTY GROUP HOME #2,35.43891,-79.58488,Active,6,1/13/19,2019,1/31/24,2024
1063250,ARC/HDS HALIFAX CO GH #2,36.44367,-77.63265,Active,6,1/20/19,2019,1/31/24,2024
1118406,WINDSOR OAKS,35.985743,-76.956986,Active,50,3/14/78,1978,1/31/24,2024
1118499,LAKE VIEW APARTMENTS,35.52251,-82.82674,Active,56,8/24/79,1979,1/31/24,2024
1004881,HOLLY RIDGE APARTMENTS,34.61505,-79.02331,Active,110,3/1/84,1984,2/1/24,2024
1063228,NORTHWOODS APARTMENTS,34.56056,-77.922,Active,50,7/1/84,1984,2/1/24,2024
1062996,ARC/HDS CATAWBA CO GH #2,35.704349,-81.225988,Active,6,2/3/19,2019,2/28/24,2024
1019460,ARC/HDS WAKE COUNTY GROUP HOME #2,35.84604,-78.59731,Active,7,2/25/19,2019,2/29/24,2024
1019691,ARC/HDS YADKIN COUNTY GH,36.22915,-80.70753,Active,6,2/19/19,2019,2/29/24,2024
1062930,ARC/HDS PERSON COUNTY GROUP HOME #3,36.385393,-78.991594,Active,6,2/21/19,2019,2/29/24,2024
1062932,ARC/HDS ROCKINGHAM COUNTY GROUP HOME #2,36.33707,-79.68641,Active,6,2/22/19,2019,2/29/24,2024
1062936,ARC/HDS ALAMANCE CO ICF/MR GH #1,36.073654,-79.385322,Active,7,2/21/19,2019,2/29/24,2024
1062942,ARC/HDS PIEDMONT ICF/MR GROUP HOME,35.46234,-80.60465,Active,6,2/15/19,2019,2/29/24,2024
1062952,ARC/HDS PITT COUNTY ICF/MR GROUP HOME,35.38259,-77.42147,Active,7,2/24/19,2019,2/29/24,2024
1062956,ARC/HDS ALAMANCE CO ICF/MR GH #2,36.07313,-79.40638,Active,7,2/9/19,2019,2/29/24,2024
1063007,ARC/HDS CRAVEN CO GH #2,35.1203,-77.07022,Active,6,2/23/19,2019,2/29/24,2024
1063057,ARC/HDS UNION COUNTY GROUP HOME #1,34.97921,-80.45082,Active,6,2/28/19,2019,2/29/24,2024
1063224,ARC/HDS GUILFORD CO GH #3,36.09313,-79.87472,Active,6,2/9/19,2019,2/29/24,2024
1128123,,35.383842,-77.992457,Active,1,3/3/09,2009,3/3/24,2024
1004877,LUTHERHAUS OF LINCOLNTON,35.4684,-81.24438,Active,30,3/14/13,2013,3/13/24,2024
1065257,WALLACE TOWNHOMES,35.197365,-80.807144,Active,34,3/13/14,2014,3/13/24,2024
1064979,,35.399173,-80.575457,Active,11,3/14/14,2014,3/14/24,2024
1063138,WNC COMMUNITY HOMES #1,35.47001,-81.22597,Active,7,3/2/90,1990,3/27/24,2024
1063013,ARC/HDS UNION COUNTY GROUP HOME #2,34.991142,-80.468492,Active,7,3/23/19,2019,3/31/24,2024
1063117,ARC/HDS FORSYTH CO ICF/MR,36.17752,-80.22872,Active,6,3/2/19,2019,3/31/24,2024
1063323,ARC/HDS GUILFORD CO GH #2,35.99304,-79.96496,Active,6,3/2/19,2019,3/31/24,2024
1119266,PINE GROVE APARTMENTS,35.58575,-77.58929,Active,174,11/30/71,1971,3/31/24,2024
1065062,LORIE VILLAGE APTS:RENTAL,35.4078,-80.83991,Active,4,4/1/04,2004,4/1/24,2024
1064345,ARC/HDS ALLEGHANY CO GH,36.506461,-81.13406,Active,6,4/11/19,2019,4/10/24,2024
1064162,CMHP ELDERLY APARTMENTS IN BELMONT,35.229338,-80.819928,Active,6,4/15/04,2004,4/15/24,2024
1063195,BATTERY PARK APARTMENTS,35.59646,-82.55687,Active,122,6/1/81,1981,4/20/24,2024
1063928,BLANTON GREEN II APARTMENTS,35.093128,-78.942009,Active,48,1/1/03,2003,4/21/24,2024
1064875,CROSSWINDS GREENS,35.014312,-78.920538,Active,48,4/27/04,2004,4/27/24,2024
1063868,HAYMOUNT MANOR APARTMENTS,35.06812,-78.91307,Active,48,1/1/01,2001,4/28/24,2024
1063226,ARC/HDS GREENE CO APARTMENTS,35.446092,-77.666137,Active,8,4/28/19,2019,4/30/24,2024
1063306,ARC/HDS ALEXANDER CO APARTMENTS,35.91689,-81.16478,Active,8,4/21/19,2019,4/30/24,2024
1063936,COMPTON PLACE,35.60455,-82.61516,Active,40,1/1/03,2003,4/30/24,2024
1063108,GREENTREE VILLAGE APARTMENTS,35.6028,-77.33773,Active,41,6/1/84,1984,5/1/24,2024
1063466,ALAMANCE PLAZA,36.09208,-79.43871,Active,76,6/1/84,1984,5/1/24,2024
1111095,TRENT RIVER APARTMENTS,35.066387,-77.364994,Active,25,1/1/03,2003,5/3/24,2024
1116667,SPRINGWOOD APARTMENTS,34.90392,-77.54143,Active,25,1/1/03,2003,5/3/24,2024
1064192,BLANTON GREEN APARTMENTS,35.09345,-78.94205,Active,48,1/1/00,2000,5/5/24,2024
1064204,BLANTON GREEN PHASE II,35.09233,-78.94104,Active,32,5/5/04,2004,5/5/24,2024
1064873,HAYMOUNT MANOR ELDERLY HOUSING DEVELOP,35.072638,-78.881933,Active,48,5/5/04,2004,5/5/24,2024
1064877,ROSEHILL WEST APARTMENTS,35.110966,-78.911629,Active,76,1/1/02,2002,5/5/24,2024
1064670,HILLSIDE COMMONS APARTMENTS,35.32797,-82.47818,Active,36,5/10/04,2004,5/10/24,2024
1116319,HUNTERS GLEN APARTMENTS,35.21958,-79.396,Active,50,4/8/93,1993,5/18/24,2024
1064656,RENAISSANCE COMMONS,36.28942,-76.23464,Active,48,1/1/03,2003,5/26/24,2024
1063010,ARC/HDS STOKES CO APARTMENTS,36.30082,-80.13694,Active,8,5/26/19,2019,5/31/24,2024
1063118,ARC/HDS MCDOWELL CO APARTMENTS,35.69294,-81.994428,Active,8,5/12/19,2019,5/31/24,2024
1063301,SUMMIT VILLAGE APARTMENTS,35.787,-80.90818,Active,80,5/2/19,2019,5/31/24,2024
1063345,ALPHA ARMS APARTMENTS,35.41059,-77.98169,Active,104,4/1/74,1974,5/31/24,2024
1064419,ORCHARD PARK APARTMENTS,35.23565,-80.8482,Active,42,2/1/77,1977,5/31/24,2024
1065356,,35.597619,-80.804449,Active,1,6/1/04,2004,6/1/24,2024
1063854,THE BUNGALOWS,35.498558,-80.856581,Active,32,1/1/00,2000,6/2/24,2024
1064165,GOLFVIEW APARTMENTS,34.96273,-78.970963,Active,48,1/1/97,1997,6/14/24,2024
1064900,HILLSIDE COMMONS LIMITED PARTNERSHIP,35.317968,-82.463802,Active,36,6/22/04,2004,6/22/24,2024
1124615,CHESTNUT HILLS APARTMENTS,35.782207,-78.727692,Active,50,6/25/04,2004,6/25/24,2024
1063944,LEGION MANOR APARTMENTS,34.99501,-78.92074,Active,44,1/1/03,2003,6/30/24,2024
1065229,,35.262053,-80.850983,Active,12,7/8/14,2014,7/8/24,2024
1064255,BERKELEY SPRING APARTMENTS,35.85994,-78.6491,Active,36,1/1/03,2003,7/15/24,2024
1062934,ARC/HDS PAMLICO COUNTY GROUP HOME,35.0854,-76.8457,Active,6,7/7/19,2019,7/31/24,2024
1062988,ARC/HDS PERSON COUNTY GROUP HOME #4,36.38824,-78.98618,Active,7,7/21/19,2019,7/31/24,2024
1062992,ARC/HDS CHEROKEE/CLAY CO GH,35.04736,-83.8186,Active,7,7/25/19,2019,7/31/24,2024
1010833,,35.499765,-80.852779,Active,4,8/13/04,2004,8/13/24,2024
1062938,ARC/HDS ROBESON COUNTY GROUP HOME #2,34.73143,-79.35572,Active,7,9/1/19,2019,8/31/24,2024
1062964,ARC/HDS CASWELL COUNTY GH #2,36.411456,-79.34863,Active,7,8/29/19,2019,8/31/24,2024
1063092,ARC/HDS CASWELL CO GH #1,36.449796,-79.277618,Active,7,8/22/19,2019,8/31/24,2024
1063187,TOPEKA HEIGHTS,35.01075,-78.91676,Active,150,6/1/74,1974,8/31/24,2024
1063204,ARC/HDS LENOIR COUNTY ICF/MR GROUP HOME,35.289449,-77.593481,Active,6,8/31/19,2019,8/31/24,2024
1063433,ARC/HDS HAYWOOD CO GH,35.505304,-82.968356,Active,6,8/29/19,2019,8/31/24,2024
1063912,LIFE HOUSE APARTMENTS,35.5112,-82.52171,Active,20,1/1/02,2002,9/15/24,2024
1064826,ASHEVILLE VOA ELDERLY HOUSING,35.529924,-82.521327,Active,50,9/15/04,2004,9/15/24,2024
1063946,LENNOX CHASE,35.74647,-78.67769,Active,37,1/1/03,2003,9/22/24,2024
1063006,ARC/HDS CUMBERLAND CO GH #2,35.1096,-78.87259,Active,7,9/11/19,2019,9/30/24,2024
1063008,ARC/HDS SANDHILLS ICF/MR GROUP HOME,34.93276,-79.74912,Active,6,9/21/19,2019,9/30/24,2024
1063128,ARC/HDS DAVIDSON CO GH,35.81832,-80.25026,Active,6,10/1/19,2019,9/30/24,2024
1063197,ARC/HDS WAYNE COUNTY GROUP HOME,35.19986,-78.07016,Active,7,9/12/19,2019,9/30/24,2024
1063234,ARC/HDS HERTFORD CO GH #2,36.281712,-76.981567,Active,7,9/20/19,2019,9/30/24,2024
1063275,ASHBROOKE APARTMENTS,35.29941,-78.60394,Active,52,9/30/19,2019,9/30/24,2024
1063296,ARC/HDS GUILFORD CO GH #4,35.976095,-79.951139,Active,6,9/18/19,2019,9/30/24,2024
1064331,ARC/HDS NORTHAMPTON COUNTY GROUP HOME,36.327302,-77.217768,Active,7,9/7/19,2019,9/30/24,2024
1064844,JACKSON TERRACE II,35.355524,-79.42066,Active,22,1/1/00,2000,10/4/24,2024
1064861,CROSSWINDS GREEN II APARTMENTS LIMITED PARTNER,34.928547,-78.918617,Active,48,10/4/04,2004,10/4/24,2024
1065483,,35.953105,-77.795064,Active,1,10/21/14,2014,10/21/24,2024
1010909,WINGATE AVENUE,35.21577,-80.90695,Active,1,1/1/88,1988,10/28/24,2024
1063162,WNC AUTISTIC GROUP HOME,35.57962,-82.56149,Active,7,1/13/86,1986,10/31/24,2024
1062984,ARC/HDS SMOKY MOUNTAIN ICF/MR GROUP HOME,35.37763,-83.2279,Active,7,11/6/19,2019,11/30/24,2024
1063077,ARC/HDS SURRY COUNTY GROUP HOME #2,36.24769,-80.86443,Active,6,11/2/19,2019,11/30/24,2024
1063088,ARC/HDS BRUNSWICK COUNTY GH #1,33.97665,-78.38518,Active,7,11/17/19,2019,11/30/24,2024
1063132,ARC/HDS FORSYTH CO GH #2,36.05244,-80.23806,Active,6,11/13/19,2019,11/30/24,2024
1063312,ARC/HDS ASHE CO GH,36.4186,-81.46724,Active,7,11/14/19,2019,11/30/24,2024
1065469,,35.941498,-77.774638,Active,1,12/6/14,2014,12/6/24,2024
1065475,,35.941738,-77.774455,Active,8,12/6/14,2014,12/6/24,2024
1009988,,35.662537,-81.239423,Active,6,12/29/04,2004,12/29/24,2024
1063022,ARC/HDS DURHAM CO GH #2,36.06502,-78.89916,Active,6,12/19/19,2019,12/31/24,2024
1063480,ARC/HDS IREDELL COUNTY GROUP HOME,35.79481,-80.89975,Active,6,12/11/19,2019,12/31/24,2024
1063494,ARC/HDS MACON COUNTY GROUP HOME,35.18551,-83.38596,Active,7,12/7/19,2019,12/31/24,2024
1064343,ARC/HDS HARNETT CO GH #3,35.405998,-78.666675,Active,7,12/29/19,2019,12/31/24,2024
1063815,1700 ALICE AVE,36.05065,-79.75601,Active,1,1/1/95,1995,1/1/25,2025
1063816,1702 ALICE AVE,36.05065,-79.75601,Active,1,1/1/95,1995,1/1/25,2025
1063818,223 A&B MAPLE DRIVE,36.30038,-78.59132,Active,2,1/1/95,1995,1/1/25,2025
1063823,HEATHERBROOK,35.81709,-78.57615,Inconclusive,1,1/1/95,1995,1/1/25,2025
1063825,HEATHERBROOK,35.81709,-78.57615,Inconclusive,1,1/1/95,1995,1/1/25,2025
1063827,HEATHERBROOK,35.81709,-78.57615,Inconclusive,1,1/1/95,1995,1/1/25,2025
1063829,HEATHERBROOK,35.81709,-78.57615,Inconclusive,1,1/1/95,1995,1/1/25,2025
1063831,HEATHERBROOK,35.81709,-78.57615,Inconclusive,1,1/1/95,1995,1/1/25,2025
1063833,HEATHERBROOK,35.81709,-78.57615,Inconclusive,1,1/1/95,1995,1/1/25,2025
1063835,HEATHERBROOK,35.81709,-78.57615,Inconclusive,1,1/1/95,1995,1/1/25,2025
1063837,HEATHERBROOK,35.81709,-78.57615,Inconclusive,1,1/1/95,1995,1/1/25,2025
1063839,HEATHERBROOK,35.81696,-78.57683,Inconclusive,1,1/1/95,1995,1/1/25,2025
1063841,HEATHERBROOK,35.81696,-78.57683,Inconclusive,1,1/1/95,1995,1/1/25,2025
1063843,HEATHERBROOK,35.81696,-78.57683,Inconclusive,1,1/1/95,1995,1/1/25,2025
1063845,HEATHERBROOK,35.81696,-78.57683,Inconclusive,1,1/1/95,1995,1/1/25,2025
1063847,HEATHERBROOK,35.81696,-78.57683,Inconclusive,1,1/1/95,1995,1/1/25,2025
1063849,HEATHERBROOK,35.81696,-78.57683,Inconclusive,1,1/1/95,1995,1/1/25,2025
1063851,HEATHERBROOK,35.81696,-78.57683,Inconclusive,1,1/1/95,1995,1/1/25,2025
1063853,HEATHERBROOK,35.81696,-78.57683,Inconclusive,1,1/1/95,1995,1/1/25,2025
1063857,HEATHERBROOK,35.81696,-78.57683,Inconclusive,1,1/1/95,1995,1/1/25,2025
1063859,HEATHERBROOK,35.81696,-78.57683,Inconclusive,1,1/1/95,1995,1/1/25,2025
1063861,2926 FAVERSHAM PL,35.81764,-78.57675,Inconclusive,1,1/1/95,1995,1/1/25,2025
1063865,HEATHERBROOK,35.81764,-78.57675,Inconclusive,1,1/1/95,1995,1/1/25,2025
1063867,HEATHERBROOK,35.81764,-78.57675,Inconclusive,1,1/1/95,1995,1/1/25,2025
1063869,HEATHERBROOK,35.81764,-78.57675,Inconclusive,1,1/1/95,1995,1/1/25,2025
1063871,HEATHERBROOK,35.81764,-78.57675,Inconclusive,1,1/1/95,1995,1/1/25,2025
1063873,HEATHERBROOK,35.81764,-78.57675,Inconclusive,1,1/1/95,1995,1/1/25,2025
1063875,HEATHERBROOK,35.81764,-78.57675,Inconclusive,1,1/1/95,1995,1/1/25,2025
1063877,HEATHERBROOK,35.81817,-78.57654,Inconclusive,1,1/1/95,1995,1/1/25,2025
1063879,HEATHERBROOK,35.81817,-78.57654,Inconclusive,1,1/1/95,1995,1/1/25,2025
1063881,HEATHERBROOK,35.81817,-78.57654,Inconclusive,1,1/1/95,1995,1/1/25,2025
1063883,3837 W AVE,36.143241,-79.870922,Active,1,1/1/95,1995,1/1/25,2025
1063885,3860 GREEN POINT DR,36.04067,-79.85863,Active,1,1/1/95,1995,1/1/25,2025
1063887,508 & 510 CHARLES STREET,36.32434,-78.39549,Active,4,1/1/95,1995,1/1/25,2025
1063891,623 CAROLINA AVE,35.7833,-78.71662,Active,1,1/1/95,1995,1/1/25,2025
1063895,8103 FARMLEA CIR,35.88389,-78.55871,Inconclusive,1,1/1/95,1995,1/1/25,2025
1063897,8105 FARMLEA CIR,35.88389,-78.55871,Inconclusive,1,1/1/95,1995,1/1/25,2025
1063899,8107 FARMLEA CIR,35.88389,-78.55871,Active,1,1/1/95,1995,1/1/25,2025
1063901,8109 FARMLEA CIR,35.88389,-78.55871,Active,1,1/1/95,1995,1/1/25,2025
1063903,APPLE & PEACH HOUSING,36.33895,-78.39256,Active,2,1/1/95,1995,1/1/25,2025
1063905,CARMEL RIDGE,36.302,-78.37937,Active,22,1/1/95,1995,1/1/25,2025
1063911,CLARK STREET DUPLEX,36.32654,-78.39488,Inconclusive,2,1/1/95,1995,1/1/25,2025
1063913,815 CLAY ST,35.79155,-78.65091,Inconclusive,4,1/1/95,1995,1/1/25,2025
1063915,CLEMENT AVE APARTMENTS A,36.31828,-78.59745,Inconclusive,2,1/1/95,1995,1/1/25,2025
1063917,CLEMENT AVE APARTMENTS B,36.31861,-78.5968,Inconclusive,2,1/1/95,1995,1/1/25,2025
1063919,DENT LANE B,35.95491,-78.37114,Inconclusive,2,1/1/95,1995,1/1/25,2025
1063921,DENT LANE C,35.95491,-78.37114,Inconclusive,2,1/1/95,1995,1/1/25,2025
1063923,EAST SIDE HOMES,35.71072,-79.80383,Active,18,1/1/95,1995,1/1/25,2025
1063925,FALLING CREEK VILLAGE,34.91647,-79.7468,Active,36,1/1/95,1995,1/1/25,2025
1063927,GRAHAM VILLAGE APARTMENTS,36.08656,-79.38429,Active,50,1/1/95,1995,1/1/25,2025
1063929,HOLLY COURT APARTMENTS,36.34156,-78.40349,Inconclusive,12,1/1/95,1995,1/1/25,2025
1063931,HORSE CREEK HOUSES C,36.41239,-78.15529,Inconclusive,4,1/1/95,1995,1/1/25,2025
1063933,HORSE CREEK HOUSING D,36.412772,-78.155485,Inconclusive,4,1/1/95,1995,1/1/25,2025
1063935,HORSE CREEK HOUSING E,36.41239,-78.15529,Inconclusive,2,1/1/95,1995,1/1/25,2025
1063937,WOODFIELD SUBDIVISION (LOT 15 SECTION 4),35.70497,-77.8944,Inconclusive,1,1/1/95,1995,1/1/25,2025
1063939,WOODFIELD SUBDIVISION (LOT 21 SECTION 4),35.74751,-77.93861,Inconclusive,1,1/1/95,1995,1/1/25,2025
1063941,MEADOW BROOK,35.72136,-81.66675,Active,38,1/1/95,1995,1/1/25,2025
1063945,MUTUAL MANOR APARTMENTS,35.96116,-78.90967,Active,18,1/1/95,1995,1/1/25,2025
1063947,OAKWOOD APARTMENTS PHASE II,36.12769,-80.66465,Active,24,1/1/95,1995,1/1/25,2025
1063949,PARKVIEW APARTMENTS,35.584091,-80.824121,Active,43,1/1/95,1995,1/1/25,2025
1063951,PINE STREET DUPLEX,36.45264,-78.56131,Inconclusive,2,1/1/95,1995,1/1/25,2025
1063967,ROCKWOOD COTTAGES,35.977563,-78.924377,Active,21,1/1/95,1995,1/1/25,2025
1063969,SWAIN STREET HOME,36.32046,-78.39124,Inconclusive,1,1/1/95,1995,1/1/25,2025
1063971,THE ARBORS,35.87455,-78.59528,Active,50,1/1/95,1995,1/1/25,2025
1063973,THE CARILLON,36.13654,-79.83125,Active,150,1/1/95,1995,1/1/25,2025
1063975,VICTORIAN ARMS PHASE II,35.88814,-79.96116,Inconclusive,12,1/1/95,1995,1/1/25,2025
1064170,MOUNTAIN SPRINGS APARTMENTS,35.59767,-82.54334,Active,44,1/1/95,1995,1/1/25,2025
1064407,NORTHGATE APARTMENTS,35.29998,-81.28025,Active,34,1/1/95,1995,1/1/25,2025
1064536,MARSH RIDGE PARK,35.81217,-78.58812,Inconclusive,48,1/1/95,1995,1/1/25,2025
1064580,,35.45792,-79.16283,Active,40,1/1/95,1995,1/1/25,2025
1064616,WOODFIELD SUBDIVISION: LOT 19 SECTION 4,35.692582,-77.907489,Active,1,1/1/95,1995,1/1/25,2025
1064620,WOODFIELD SUBDIVISION: LOT 11 SECTION 4,35.692582,-77.907489,Inconclusive,1,1/1/95,1995,1/1/25,2025
1064822,ALLIANCE MANOR,35.144858,-76.800486,Active,24,1/1/95,1995,1/1/25,2025
1064836,BRIDGEWOOD SQUARE CO-OP,35.467048,-76.655553,Active,16,1/1/95,1995,1/1/25,2025
1064855,SEDGEBROOK APARTMENTS,35.764906,-78.786642,Active,32,1/1/95,1995,1/1/25,2025
1064871,HYCIENDA HEIGHTS,35.541883,-76.051927,Active,24,1/1/95,1995,1/1/25,2025
1064912,RIVERVIEW TOWNES APARTMENTS,35.271135,-77.525946,Active,24,1/1/95,1995,1/1/25,2025
1064941,TURNBRIDGE APARTMENTS,36.147775,-79.777262,Inconclusive,120,1/1/95,1995,1/1/25,2025
1102095,WOODFIELD SUBDIVISION,35.70556,-77.8951,Inconclusive,1,1/1/95,1995,1/1/25,2025
1106539,ORCHARD POINTE,35.751995,-78.680996,Active,100,1/1/95,1995,1/1/25,2025
1106542,NORTH STREET HOME,36.340931,-78.411731,Inconclusive,1,1/1/95,1995,1/1/25,2025
1106623,AVERY SQUARE,35.71198,-78.61011,Active,20,1/1/95,1995,1/1/25,2025
1108068,MOREHEAD GLEN,35.990512,-78.916739,Active,20,1/1/95,1995,1/1/25,2025
1108369,EAST HAVEN APARTMENTS,35.76314,-78.57213,Active,48,1/1/95,1995,1/1/25,2025
1111854,APTS OF LUMBERTON,34.62077,-78.97639,Active,48,9/1/94,1994,1/1/25,2025
1113344,HILL ESTATES,34.543836,-78.799227,Active,72,10/24/88,1988,1/1/25,2025
1116815,RIVER PARK APARTMENTS,35.365001,-83.245743,Active,27,1/1/95,1995,1/1/25,2025
1118077,RHS APARTMENTS,36.362558,-79.670333,Active,53,1/1/95,1995,1/1/25,2025
1118356,COLONIAL LODGE,36.39926,-78.15481,Active,32,1/1/95,1995,1/1/25,2025
1118420,HAVELOCK MANOR APARTMENTS,34.87823,-76.88909,Active,60,1/21/81,1981,1/1/25,2025
1119055,RIVER TERRACE VILLAGE APARTMENTS,34.65682,-78.99408,Active,25,1/1/95,1995,1/1/25,2025
1119082,ROBESON MANOR APARTMENTS,34.47048,-79.15433,Active,24,9/1/94,1994,1/1/25,2025
1119230,QUANKEY HILLS APARTMENTS,36.25291,-77.559249,Active,24,1/1/95,1995,1/1/25,2025
1122005,OAKDALE APARTMENTS,35.792183,-78.210875,Active,24,1/1/95,1995,1/1/25,2025
1122089,WINDSOR VILLAGE,36.0028,-76.9522,Active,33,1/1/95,1995,1/1/25,2025
1111172,WESLEY RIDGE,34.65691,-78.99493,Active,24,1/1/04,2004,1/4/25,2025
1065317,,35.491968,-80.614477,Active,1,1/8/15,2015,1/8/25,2025
1120674,WALLACE SENIOR VILLAGE,34.73688,-77.99847,Active,24,1/1/03,2003,1/27/25,2025
1063002,ARC/HDS CUMBERLAND CO GH #3,35.100546,-78.883464,Active,6,2/1/20,2020,1/31/25,2025
1063094,ARC/HDS ROWAN COUNTY GROUP HOME #3,35.69593,-80.50847,Active,6,1/4/20,2020,1/31/25,2025
1062990,ARC/HDS SAMPSON COUNTY GROUP HOME #2,35.0009,-78.31191,Active,6,2/22/20,2020,2/28/25,2025
1063018,ARC/HDS DURHAM CO GH #1,35.95523,-78.94142,Active,6,2/20/20,2020,2/28/25,2025
1063064,ARC/HDS WATAUGA COUNTY GROUP HOME,36.19378,-81.64013,Active,7,2/8/20,2020,2/28/25,2025
1063120,ARC/HDS MARTIN COUNTY GROUP HOME,35.85362,-77.06933,Active,7,3/1/20,2020,2/28/25,2025
1062948,ARC/HDS BLADEN COUNTY GH #2,34.62851,-78.61397,Active,7,3/19/20,2020,3/31/25,2025
1063061,ARC/HDS TYRRELL COUNTY GROUP HOME,35.92209,-76.24955,Active,7,3/16/20,2020,3/31/25,2025
1063078,ARC/HDS YANCEY COUNTY GROUP HOME,35.9172,-82.28917,Active,6,3/20/20,2020,3/31/25,2025
1063240,BREEZE HILL APARTMENTS,35.69206,-79.83069,Active,50,4/1/74,1974,3/31/25,2025
1063440,ARC/HDS JONES COUNTY GROUP HOME,35.03073,-77.2854,Active,7,3/7/20,2020,3/31/25,2025
1063450,ARC/HDS HOKE CO GH #2,34.97813,-79.23492,Active,7,3/13/20,2020,3/31/25,2025
1063460,ARC/HDS HYDE CO GH #1,35.54197,-76.16644,Active,7,3/27/20,2020,3/31/25,2025
1063490,ARC/HDS HOKE CO GH #1,34.96969,-79.22784,Active,7,3/13/20,2020,3/31/25,2025
1064325,ARC/HDS BLADEN COUNTY GH #1,34.534356,-78.78782,Active,7,3/19/20,2020,3/31/25,2025
1064626,ARC/HDS CHEROKEE CO GH #1,35.19817,-83.8186,Active,7,3/6/20,2020,3/31/25,2025
1155270,,35.904554,-79.067218,Active,28,4/9/20,2020,4/9/25,2025
1063059,ARC/HDS VANCE COUNTY GROUP HOME #1,36.337436,-78.416252,Active,6,4/4/20,2020,4/30/25,2025
1116023,DEERFIELD APARTMENTS,36.20383,-77.7233,Active,24,1/1/03,2003,5/4/25,2025
1116067,ASHLEY RIDGE APARTMENTS,34.557073,-77.930359,Active,20,1/1/04,2004,5/5/25,2025
1063974,HOLLY HAVEN,35.19048,-83.35488,Active,48,1/1/04,2004,5/18/25,2025
1062972,ARC/HDS CALDWELL CO GH,35.84288,-81.48869,Active,6,5/7/20,2020,5/31/25,2025
1062994,ARC/HDS STANLY COUNTY GROUP HOME #2,35.34206,-80.16129,Active,6,5/8/20,2020,5/31/25,2025
1063066,ARC/HDS WILSON COUNTY GROUP HOME #2,35.741634,-77.919688,Active,6,5/31/20,2020,5/31/25,2025
1063130,ARC/HDS EDGECOMBE/NASH GH #2,35.93661,-77.82009,Active,6,5/24/20,2020,5/31/25,2025
1064846,FY03 HIGHLAND VILLAGE APARTMENTS,35.783459,-78.799399,Active,15,6/14/05,2005,6/14/25,2025
1065473,,35.941348,-77.774639,Active,2,6/1/09,2009,6/26/25,2025
1062928,ARC/HDS ORANGE COUNTY ICF/MR GH,35.96161,-79.04116,Active,7,6/5/20,2020,6/30/25,2025
1062980,ARC/HDS CHATHAM COUNTY GH #2,35.721924,-79.476858,Active,7,6/26/20,2020,6/30/25,2025
1063165,MEADOWLARK GLEN APARTMENTS,35.599192,-80.802324,Active,76,7/1/05,2005,6/30/25,2025
1064002,BUNCE GREEN APARTMENTS,35.04667,-78.99799,Active,80,1/1/05,2005,6/30/25,2025
1064017,BUNCE MANOR APARTMENTS,35.0457,-78.99672,Active,48,1/1/05,2005,6/30/25,2025
1064987,,35.5,-80.85297,Active,1,6/30/10,2010,6/30/25,2025
1120525,STEED CIRCLE APARTMENTS,34.72776,-79.35445,Active,50,6/4/20,2020,6/30/25,2025
1063285,TAMMY LYNN ICF/MR,35.77025,-78.683,Active,7,12/17/87,1987,7/1/25,2025
1064138,BROOKWOOD APARTMENTS,35.49213,-81.23889,Active,28,7/11/05,2005,7/11/25,2025
1063016,ARC/HDS STANLY COUNTY GROUP HOME # 3,35.36829,-80.16496,Active,7,7/19/20,2020,7/31/25,2025
1063051,ARC/HDS STANLY COUNTY GROUP HOME #1,35.35085,-80.19022,Active,7,7/9/20,2020,7/31/25,2025
1063075,ARC/HDS DAVIDSON CO GH #2,35.77122,-80.27219,Active,7,7/31/20,2020,7/31/25,2025
1062951,ARC/HDS PITT COUNTY GROUP HOME #2,35.5845,-77.35839,Active,7,8/16/20,2020,8/31/25,2025
1063347,WNC COMMUNITY HOMES #2,35.79315,-80.85005,Active,7,9/24/91,1991,8/31/25,2025
1063503,ARC/HDS MCDOWELL CO GROUP HOME #2,35.623734,-82.086426,Active,7,8/13/20,2020,8/31/25,2025
1062944,ARC/HDS ANSON COUNTY GH,34.94783,-80.07426,Active,7,9/18/20,2020,9/30/25,2025
1062958,ARC/HDS CAMDEN CO GH #1,36.25842,-76.05404,Active,7,9/12/20,2020,9/30/25,2025
1063017,ARC/HDS DARE CO GH #1,35.92179,-75.70357,Active,7,9/12/20,2020,9/30/25,2025
1063045,ARC/HDS ROWAN COUNTY GROUP HOME #1,35.57165,-80.58129,Active,6,9/29/20,2020,9/30/25,2025
1063248,EASTER SEALS UNITED CEREBRAL PALSEY NC HOUSING,35.79336,-78.61695,Active,82,7/1/06,2006,9/30/25,2025
1063272,BEACON POINTE APARTMENTS,35.71453,-77.881772,Active,104,2/1/74,1974,9/30/25,2025
1063316,ARC/HDS ALAMANCE CO GH #5,36.109122,-79.26279,Active,7,9/17/20,2020,9/30/25,2025
1063097,LAGRANGE VILLAGE APARTMENTS,35.30724,-77.78505,Active,50,10/3/05,2005,10/2/25,2025
1063926,ROSEDALE II/HOPE HAVEN,35.2584,-80.80158,Active,74,1/1/02,2002,10/10/25,2025
1064041,NORTHPOINT COMMONS II,35.6472,-82.57421,Active,39,1/1/05,2005,10/26/25,2025
1063004,ARC/HDS CHATHAM COUNTY GH #3,35.73075,-79.47793,Active,7,10/9/20,2020,10/31/25,2025
1063063,ARC/HDS WASHINGTON COUNTY GROUP HOME #2,35.85403,-76.74159,Active,6,10/29/20,2020,10/31/25,2025
1063119,ARC/HDS FORSYTH CO GH #5,36.122052,-80.134423,Active,7,10/3/20,2020,10/31/25,2025
1064323,ARC/HDS COLUMBUS CO GH #2,34.330721,-78.693007,Active,7,10/5/20,2020,10/31/25,2025
1062974,ARC/HDS RICHMOND COUNTY GROUP HOME #2,35.07067,-79.767,Active,7,11/14/20,2020,11/13/25,2025
1008827,CREEKSIDE CORNERS #2 DUPLEXS,35.500006,-80.85287,Active,9,11/17/05,2005,11/17/25,2025
1120086,CLAYTON COURT APARTMENTS,35.65847,-78.45443,Active,12,8/29/75,1975,11/23/25,2025
1062940,ARC/HDS BEAUFORT CO APARTMENTS,35.5563,-77.06553,Active,10,11/27/20,2020,11/30/25,2025
1062986,ARC/HDS ROCKINGHAM COUNTY GROUP HOME #3,36.32347,-79.67209,Active,7,11/19/20,2020,11/30/25,2025
1063000,ARC/HDS COLUMBUS COUNTY GH #1,34.3263,-78.69913,Active,6,11/19/20,2020,11/30/25,2025
1063121,ARC/HDS GUILFORD CO GH #5,36.01118,-80.03032,Active,6,11/22/20,2020,11/30/25,2025
1063222,ARC/HDS GASTON CO GH #2,35.26204,-81.16308,Active,6,11/25/20,2020,11/30/25,2025
1063233,ARC/HDS MOORE COUNTY GROUP HOME #1,35.172892,-79.386613,Active,6,11/19/20,2020,11/30/25,2025
1064339,ARC/HDS JOHNSTON COUNTY GROUP HOME #3,35.466332,-78.160237,Active,7,11/29/20,2020,11/30/25,2025
1065167,,35.53453,-82.69907,Active,1,12/12/05,2005,12/12/25,2025
1064704,MHO NORTHPOINT COMMONS APARTMENTS PHASE II,35.63713,-82.56216,Active,39,12/15/05,2005,12/15/25,2025
1065306,SOUTHVIEW GREEN APARTMENTS,34.979524,-78.923041,Active,72,1/1/04,2004,12/19/25,2025
1064132,TARBORO SQUARE,35.899852,-77.536407,Active,24,12/20/05,2005,12/20/25,2025
1129721,THE HOLLOWS APARTMENTS,36.22466,-80.70824,Active,20,12/21/15,2015,12/21/25,2025
1121866,SEDGEFIELD APARTMENTS,35.584961,-80.824669,Active,36,1/3/96,1996,12/26/25,2025
1065259,WESLEY HEIGHTS COMMUNITY DEVELOPMENT INC,35.23561,-80.862633,Active,1,12/30/05,2005,12/30/25,2025
1063084,ARC/HDS WILSON COUNTY APARTMENTS,35.72063,-77.92435,Active,9,12/17/20,2020,12/31/25,2025
1063105,ARC/HDS EDGECOMBE CO APARTMENTS,35.92876,-77.77347,Active,9,12/17/20,2020,12/31/25,2025
1063242,ARC/HDS HALIFAX CO APARTMENTS,36.44534,-77.66955,Active,9,12/17/20,2020,12/31/25,2025
1063462,ARC/HDS LENOIR COUNTY APARTMENTS,35.27982,-77.57954,Active,9,12/17/20,2020,12/31/25,2025
1004611,CHESHIRE SEVERSVILLE,35.336985,-80.793928,Active,102,1/1/96,1996,1/1/26,2026
1063981,MINA HOUSING,35.75432,-78.55025,Inconclusive,1,1/1/96,1996,1/1/26,2026
1063983,1823 VINTAGE RD,35.75432,-78.54969,Inconclusive,1,1/1/96,1996,1/1/26,2026
1063985,MINA HOUSING,35.75432,-78.55025,Inconclusive,1,1/1/96,1996,1/1/26,2026
1063987,1827 VINTAGE RD,35.75432,-78.54969,Inconclusive,1,1/1/96,1996,1/1/26,2026
1063989,1832 VINTAGE RD,35.75432,-78.55025,Inconclusive,1,1/1/96,1996,1/1/26,2026
1063991,1834 VINTAGE RD,35.75432,-78.55025,Inconclusive,1,1/1/96,1996,1/1/26,2026
1063995,1836 VINTAGE RD,35.75432,-78.55025,Inconclusive,1,1/1/96,1996,1/1/26,2026
1063997,1838 VINTAGE RD,35.75432,-78.55025,Inconclusive,1,1/1/96,1996,1/1/26,2026
1063999,4200 KAPLAN DR,35.77487,-78.69188,Inconclusive,1,1/1/96,1996,1/1/26,2026
1064001,4202 KAPLAN DR,35.77487,-78.69188,Inconclusive,1,1/1/96,1996,1/1/26,2026
1064005,4208 KAPLAN DR,35.77487,-78.69188,Inconclusive,1,1/1/96,1996,1/1/26,2026
1064008,4214 KAPLAN DR,35.77487,-78.69188,Inconclusive,1,1/1/96,1996,1/1/26,2026
1064009,4218 KAPLAN DR,35.77487,-78.69188,Inconclusive,1,1/1/96,1996,1/1/26,2026
1064010,4220 KAPLAN DR,35.77487,-78.69188,Inconclusive,1,1/1/96,1996,1/1/26,2026
1064011,4222 KAPLAN DR,35.77487,-78.69188,Inconclusive,1,1/1/96,1996,1/1/26,2026
1064012,4224 KAPLAN DR,35.77487,-78.69188,Inconclusive,1,1/1/96,1996,1/1/26,2026
1064015,4230 KAPLAN DR,35.77487,-78.69188,Inconclusive,1,1/1/96,1996,1/1/26,2026
1064016,4232 KAPLAN DR,35.77487,-78.69188,Inconclusive,1,1/1/96,1996,1/1/26,2026
1064018,4236 KAPLAN DR,35.77569,-78.69172,Inconclusive,1,1/1/96,1996,1/1/26,2026
1064019,4238 KAPLAN DR,35.77569,-78.69172,Inconclusive,1,1/1/96,1996,1/1/26,2026
1064020,4240 KAPLAN DR,35.77569,-78.69172,Inconclusive,1,1/1/96,1996,1/1/26,2026
1064021,4242 KAPLAN DR,35.77569,-78.69172,Inconclusive,1,1/1/96,1996,1/1/26,2026
1064022,4244 KAPLAN DR,35.77569,-78.69172,Inconclusive,1,1/1/96,1996,1/1/26,2026
1064024,4248 KAPLAN DR,35.77569,-78.69172,Inconclusive,1,1/1/96,1996,1/1/26,2026
1064025,4250 KAPLAN DR,35.77569,-78.69172,Inconclusive,1,1/1/96,1996,1/1/26,2026
1064027,4256 KAPLAN DR,35.77569,-78.69172,Inconclusive,1,1/1/96,1996,1/1/26,2026
1064028,4258 KAPLAN DR,35.77569,-78.69172,Inconclusive,1,1/1/96,1996,1/1/26,2026
1064029,4260 KAPLAN DR,35.77569,-78.69172,Inconclusive,1,1/1/96,1996,1/1/26,2026
1064030,4262 KAPLAN DR,35.77569,-78.69172,Inconclusive,1,1/1/96,1996,1/1/26,2026
1064032,4264 KAPLAN DR,35.77569,-78.69172,Inconclusive,1,1/1/96,1996,1/1/26,2026
1064034,4266 KAPLAN DR,35.77569,-78.69172,Inconclusive,1,1/1/96,1996,1/1/26,2026
1064036,500-502 HICKS MILL RD,36.325122,-78.601489,Inconclusive,2,1/1/96,1996,1/1/26,2026
1064046,BAREFOOT PARK APARTMENTS,35.70908,-77.94426,Inconclusive,2,1/1/96,1996,1/1/26,2026
1064048,BAREFOOT PARK APARTMENTS,35.70908,-77.94426,Inconclusive,2,1/1/96,1996,1/1/26,2026
1064052,BAREFOOT PARK APTS: LOT 24,35.70908,-77.94426,Active,2,1/1/96,1996,1/1/26,2026
1064062,BAREFOOT PARK APARTMENTS,35.70908,-77.94426,Inconclusive,2,1/1/96,1996,1/1/26,2026
1064070,BARRETT PLACE APARTMENTS,35.59141,-77.40096,Active,48,1/1/96,1996,1/1/26,2026
1064080,RIVER BIRCH APARTMENTS,35.866,-78.59295,Active,176,1/1/96,1996,1/1/26,2026
1064085,THE LOFTS AT NODA MILLS,35.24934,-80.80249,Active,60,1/1/96,1996,1/1/26,2026
1064091,SALEM CREST APARTMENTS,36.060432,-80.273302,Active,144,1/1/96,1996,1/1/26,2026
1064093,WOODLAND HILLS,35.912975,-82.290489,Active,32,1/1/96,1996,1/1/26,2026
1064144,Alexander Homes,36.06833,-79.76339,Active,40,1/1/96,1996,1/1/26,2026
1064206,EAGLE TRACE APARTMENTS,35.9912,-78.50144,Active,56,1/1/96,1996,1/1/26,2026
1064253,CAPITAL TOWERS I,35.84557,-78.64167,Inconclusive,208,12/1/73,1973,1/1/26,2026
1064425,ST ANDREW'S HOMES,35.21774,-80.78404,Active,34,1/1/96,1996,1/1/26,2026
1064606,BAREFOOT PARK APARTMENTS,35.692582,-77.907489,Inconclusive,3,1/1/96,1996,1/1/26,2026
1064833,BAREFOOT PARK APARTMENTS,35.70908,-77.94426,Inconclusive,2,1/1/96,1996,1/1/26,2026
1064868,FOREST PARK GARDENS PHASE I,35.79558,-80.86826,Active,40,1/1/96,1996,1/1/26,2026
1064884,GREENS OF PINE GLEN TOWNHOUSES I,35.90815,-78.92025,Active,152,1/1/96,1996,1/1/26,2026
1064946,BETHABARA POINTE,36.16122,-80.291142,Active,160,1/1/96,1996,1/1/26,2026
1106497,MAPLE RIDGE APARTMENTS PHII,35.651539,-78.82267,Active,45,1/1/96,1996,1/1/26,2026
1106568,GREENS OF CONCORD,35.42369,-80.58335,Active,152,1/1/96,1996,1/1/26,2026
1106629,LAURELWOOD PARK APARTMENTS,35.9399,-80.04555,Active,100,1/1/96,1996,1/1/26,2026
1106633,TOWNE CENTER,34.75147,-77.40944,Inconclusive,478,1/1/96,1996,1/1/26,2026
1106638,HUNTERS LANDING,35.126406,-77.095058,Active,48,1/1/96,1996,1/1/26,2026
1106701,BILTMORE HILLS APARTMENTS,35.924042,-78.565491,Active,50,1/1/96,1996,1/1/26,2026
1107164,GREENS OF PINE GLEN TOWNHOUSES PHASE II,35.907978,-78.922711,Active,16,1/1/96,1996,1/1/26,2026
1107191,GREENS AT PINE GLEN,35.908012,-78.922324,Active,168,1/1/96,1996,1/1/26,2026
1107782,CAROLINA PINES APARTMENTS,34.7347,-79.358904,Active,32,3/18/83,1983,1/1/26,2026
1108114,CAMBRIDGE VILLAGE,35.9991,-78.86936,Active,83,1/1/96,1996,1/1/26,2026
1108126,SHAMMAH WINDS APARTMENTS,35.763637,-78.629736,Active,32,1/1/96,1996,1/1/26,2026
1108317,RIPLEY STATION,35.78436,-78.58143,Active,48,1/1/96,1996,1/1/26,2026
1115697,MATTAMUSKEET VILLAGE APARTMENTS,35.493634,-76.034779,Active,16,1/1/96,1996,1/1/26,2026
1115721,ST PAULS GREEN APARTMENTS,34.815339,-78.97643,Active,24,1/1/96,1996,1/1/26,2026
1116776,WOODGATE APARTMENTS,35.822481,-76.200914,Active,34,1/1/96,1996,1/1/26,2026
1117799,FAIRINGTON WEST APARTMENTS,35.43408,-80.63113,Active,48,9/8/95,1995,1/1/26,2026
1118505,BROOKSIDE APARTMENTS,34.73658,-79.35709,Active,32,1/1/96,1996,1/1/26,2026
1121036,IVY TERRACE APARTMENTS,36.20508,-81.66216,Active,34,1/1/96,1996,1/1/26,2026
1122041,WOODCREEK VILLAGE APARTMENTS,34.991745,-79.231905,Active,27,1/1/96,1996,1/1/26,2026
1146688,,35.05597,-78.876351,Active,2,1/6/16,2016,1/6/26,2026
1063202,ARC/HDS LENOIR COUNTY GROUP HOME #1,35.29111,-77.57293,Active,6,1/21/21,2021,1/31/26,2026
1065069,DURHAM COMMUNITY LAND TRUSTEE,35.995761,-78.915552,Active,4,2/2/11,2011,2/2/26,2026
1063437,GARDENWOOD APARTMENTS,34.92027,-79.75671,Active,40,6/1/74,1974,2/14/26,2026
1063012,CARTERET COURT APARTMENTS,34.71924,-76.65099,Active,78,2/16/06,2006,2/15/26,2026
1064464,SEAGER PLACE,36.106347,-79.893147,Active,42,1/1/04,2004,2/24/26,2026
1064045,THE PARK AT CLINE VILLAGE,35.74953,-81.19881,Active,48,1/1/05,2005,3/29/26,2026
1128113,BUILDERS OF HOPE CHDO BRADFORD APARTMENTS,35.257647,-80.897902,Active,43,4/4/16,2016,4/4/26,2026
1064931,MOUNTAIN VIEW SENIOR APARTMENTS,36.11945,-80.07259,Active,50,1/1/05,2005,4/20/26,2026
1120920,ELMWOOD APARTMENTS,35.310043,-77.156453,Active,24,1/1/05,2005,4/28/26,2026
1063303,TANGLEWOOD APARTMENTS,35.00511,-78.09974,Active,50,9/1/75,1975,5/1/26,2026
1064037,ELDERS PEAK APARTMENTS,35.73866,-78.606,Active,48,1/1/05,2005,5/17/26,2026
1065222,WITH FRIENDS,35.251456,-81.190645,Active,1,5/17/11,2011,5/17/26,2026
1128108,,35.579952,-82.563947,Active,22,6/28/16,2016,6/28/26,2026
1064043,PINERIDGE MANOR,34.98024,-78.95789,Active,60,1/1/05,2005,6/30/26,2026
1064180,FREEDOM HOUSE,35.95622,-79.05977,Active,10,6/30/06,2006,6/30/26,2026
1064466,RANKIN SCHOOL PLACE,36.12078,-79.7609,Active,56,1/1/05,2005,6/30/26,2026
1064047,WEATHERSTONE SPRING CONGREGATE CARE LIVING SENIORS,35.79156,-78.80877,Active,72,1/1/05,2005,7/25/26,2026
1063990,THE COMMONS AT HIGHLAND VILLAGE,35.7838,-78.79553,Active,68,1/1/04,2004,7/26/26,2026
1064051,WINDSOR SPRING CONGREGATE CARE FOR SENIORS,35.87099,-78.68241,Active,39,1/1/05,2005,7/26/26,2026
1110911,ASHTON SPRING APARTMENTS,35.46586,-77.42663,Active,25,1/1/05,2005,7/26/26,2026
1008910,EAST SALEM APARTMENTS INC,36.099258,-80.226608,Active,12,8/18/06,2006,8/18/26,2026
1063098,VANDERBILT APARTMENTS,35.59704,-82.55504,Active,154,9/1/70,1970,8/31/26,2026
1121879,SUGARLOAF APARTMENTS,35.34105,-82.43164,Active,44,9/9/93,1993,9/1/26,2026
1065270,STH-408 CADILLAC STREET,35.614084,-77.389583,Active,1,9/16/11,2011,9/16/26,2026
1065278,STH-906 BANCROFT AVENUE,35.608982,-77.391005,Active,1,9/16/11,2011,9/16/26,2026
1012504,HIGHLAND VIEW APARTMENTS,35.293342,-82.435239,Active,28,1/1/06,2006,9/28/26,2026
1064908,NEW CONSTRUCTION,36.085668,-79.083337,Active,15,9/28/06,2006,9/28/26,2026
1064553,PROVIDENCE PLACE,36.079508,-80.236358,Active,56,1/1/06,2006,9/29/26,2026
1064033,CARDINAL CHASE,35.724539,-79.447553,Active,48,1/1/05,2005,10/4/26,2026
1109159,DEER VIEW APARTMENTS,35.46903,-77.40656,Active,25,1/1/05,2005,10/4/26,2026
1063173,LAKE ROAD APARTMENTS,35.948004,-80.010239,Active,99,4/1/82,1982,10/7/26,2026
1065051,CASA - 217 W GEER STREET,36.003522,-78.897552,Active,7,11/4/11,2011,11/4/26,2026
1064146,RUTH'S HOUSE II,35.87288,-78.51848,Active,22,11/4/05,2005,11/7/26,2026
1064063,CEDAR SPRING - A SENIOR LIVING COMMUNITY,35.77964,-78.36689,Active,20,1/1/06,2006,12/18/26,2026
1064888,CALDWELL GARDENS,35.92603,-81.54636,Active,97,9/1/97,1997,12/20/26,2026
1064095,1824 VINTAGE RD,35.75432,-78.55025,Inconclusive,1,1/1/97,1997,1/1/27,2027
1064097,1825 VINTAGE RD,35.75432,-78.54969,Inconclusive,1,1/1/97,1997,1/1/27,2027
1064099,1828 VINTAGE RD,35.75432,-78.55025,Inconclusive,1,1/1/97,1997,1/1/27,2027
1064101,1829 VINTAGE RD,35.75432,-78.54969,Inconclusive,1,1/1/97,1997,1/1/27,2027
1064103,1833 VINTAGE RD,35.75432,-78.54969,Inconclusive,1,1/1/97,1997,1/1/27,2027
1064104,1837 VINTAGE RD,35.75432,-78.54969,Inconclusive,1,1/1/97,1997,1/1/27,2027
1064119,216 & 218 COOPER STREET,36.09242,-78.30352,Inconclusive,2,1/1/97,1997,1/1/27,2027
1064123,5410 TALSERWOOD DR,35.75237,-78.55012,Inconclusive,1,1/1/97,1997,1/1/27,2027
1064125,5411 TALSERWOOD DR,35.75319,-78.55008,Inconclusive,1,1/1/97,1997,1/1/27,2027
1064127,5412 TALSERWOOD DR,35.75237,-78.55012,Inconclusive,1,1/1/97,1997,1/1/27,2027
1064129,5413 TALSERWOOD DR,35.75319,-78.55008,Inconclusive,1,1/1/97,1997,1/1/27,2027
1064131,5414 TALSERWOOD DR,35.75237,-78.55012,Inconclusive,1,1/1/97,1997,1/1/27,2027
1064133,5415 TALSERWOOD DRIVE,35.75319,-78.55008,Inconclusive,1,1/1/97,1997,1/1/27,2027
1064135,5416 TALSERWOOD DR,35.75237,-78.55012,Inconclusive,1,1/1/97,1997,1/1/27,2027
1064141,5422 TALSERWOOD DR,35.75237,-78.55012,Inconclusive,1,1/1/97,1997,1/1/27,2027
1064143,5423 TALSERWOOD DR,35.75319,-78.55008,Inconclusive,1,1/1/97,1997,1/1/27,2027
1064145,5424 TALSERWOOD DR,35.75237,-78.55012,Inconclusive,1,1/1/97,1997,1/1/27,2027
1064147,5426 TALSERWOOD DR,35.75237,-78.55012,Inconclusive,1,1/1/97,1997,1/1/27,2027
1064149,5428 TALSERWOOD DR,35.75237,-78.55012,Inconclusive,1,1/1/97,1997,1/1/27,2027
1064151,5430 TALSERWOOD DR,35.75237,-78.55012,Inconclusive,1,1/1/97,1997,1/1/27,2027
1064153,5432 TALSERWOOD DR,35.75237,-78.55012,Inconclusive,1,1/1/97,1997,1/1/27,2027
1064155,5434 TALSERWOOD DR,35.75237,-78.55012,Inconclusive,1,1/1/97,1997,1/1/27,2027
1064157,911 S MAIN ST,36.09088,-78.30689,Inconclusive,1,1/1/97,1997,1/1/27,2027
1064161,CHESTNUT PLACE APARTMENTS,34.64146,-78.98946,Active,48,1/1/97,1997,1/1/27,2027
1064163,GARDEN SPRING APARTMENTS,35.77753,-78.58792,Active,33,1/1/97,1997,1/1/27,2027
1064169,MARSH CREEK APARTMENTS,35.81031,-78.59318,Active,24,1/1/97,1997,1/1/27,2027
1064171,PARK PLACE APARTMENTS PHASE II,35.79321,-78.48809,Active,50,1/1/97,1997,1/1/27,2027
1064173,PARKVIEW APARTMENTS,35.30628,-82.44569,Active,32,1/1/97,1997,1/1/27,2027
1064175,SOUTHWOODS,36.042484,-79.802808,Active,59,1/1/97,1997,1/1/27,2027
1064177,THE DORCHESTER,35.069,-80.88383,Active,99,1/1/97,1997,1/1/27,2027
1064179,THE MAGNOLIAS,35.79333,-78.61023,Active,40,1/1/97,1997,1/1/27,2027
1064181,WESTON TRACE,35.719749,-78.616382,Active,48,1/1/97,1997,1/1/27,2027
1064183,WESTRIDGE WOODS APARTMENTS,35.78031,-78.72926,Inconclusive,16,1/1/97,1997,1/1/27,2027
1064518,THE WILLOWS,35.72396,-81.671736,Active,36,1/1/97,1997,1/1/27,2027
1064642,JACKSON TERRACE,35.32151,-79.39787,Active,16,1/1/97,1997,1/1/27,2027
1064690,AUTUMN CHASE APARTMENTS,35.10242,-77.0201,Active,34,1/1/97,1997,1/1/27,2027
1064853,THE RESERVE AT ASHELYN GLEN,35.74772,-79.80824,Active,72,1/1/97,1997,1/1/27,2027
1064948,PINE VALLEY APARTMENTS,36.166174,-80.284089,Active,108,1/1/97,1997,1/1/27,2027
1102640,THE PINES AT LAKE ROAD,34.88011,-76.92667,Active,60,1/1/97,1997,1/1/27,2027
1106429,PIEDMONT POINTE,35.595141,-80.810004,Active,144,1/1/97,1997,1/1/27,2027
1106515,SHERWOOD PARK APARTMENTS,36.003244,-78.870391,Active,71,1/1/97,1997,1/1/27,2027
1106609,WILD GEESE LANDING TOWNHOMES,36.139611,-75.836881,Active,44,1/1/97,1997,1/1/27,2027
1106639,THE PINES AT CAROLINA PLACE,35.069642,-80.880751,Active,200,1/1/97,1997,1/1/27,2027
1107659,DEERFIELD CROSSING APARTMENTS,36.064984,-79.297474,Active,120,1/1/97,1997,1/1/27,2027
1108054,GREENFIELD APARTMENTS,34.762623,-79.492653,Active,48,1/1/97,1997,1/1/27,2027
1108142,OAK CREST APARTMENTS,35.46801,-80.5986,Active,100,1/1/97,1997,1/1/27,2027
1108407,CONCORD POINTE,35.365084,-80.634088,Active,104,1/1/97,1997,1/1/27,2027
1108487,TYLER PLACE,34.915284,-76.937924,Active,60,1/1/97,1997,1/1/27,2027
1108488,FOX HAVEN APARTMENTS,35.87394,-78.55339,Active,48,1/1/97,1997,1/1/27,2027
1108663,ROSEWOOD ESTATES I,34.6213,-78.75932,Active,56,6/13/86,1986,1/1/27,2027
1116444,HOPEWELL VILLAGE APARTMENTS,35.10379,-84.01879,Active,24,1/1/97,1997,1/1/27,2027
1116853,WINNINGHAM VILLAGE APARTMENTS,35.66824,-82.01447,Active,36,1/1/97,1997,1/1/27,2027
1120360,SEDGEWOOD APARTMENTS,36.38777,-76.94067,Active,24,7/23/82,1982,1/1/27,2027
1120663,VALLEY PLACE APARTMENTS,35.915393,-82.299629,Active,18,1/1/97,1997,1/1/27,2027
1120898,HAWTHORNE VILLAGE APARTMENTS,36.12938,-77.41892,Active,20,6/3/92,1992,1/1/27,2027
1120937,TILGHMAN SQUARE APARTMENTS,35.31522,-78.58859,Active,20,1/1/97,1997,1/1/27,2027
1121794,THE OAKS,35.92514,-81.17478,Active,40,10/30/96,1996,1/1/27,2027
1122331,MIDDLESEX MANOR,35.77739,-78.20771,Active,16,1/16/79,1979,1/1/27,2027
1122143,CRESTVIEW APARTMENTS,36.49425,-81.13455,Active,32,11/28/83,1983,2/2/27,2027
1064196,"NEW HOPE VILLAGE HOUSING ASSOC,LLC",35.804573,-78.56443,Active,45,2/12/07,2007,2/12/27,2027
1065314,,35.492477,-80.614133,Active,1,2/28/12,2012,2/28/27,2027
1128136,,35.783335,-78.689135,Active,11,4/6/17,2017,4/6/27,2027
1064950,ENFIELD SCHOOL APARTMENTS,36.18428,-77.67582,Active,36,1/1/10,2010,4/11/27,2027
1065427,EN) OAK HOLLOW APARTMENTS,35.775836,-78.581741,Active,10,4/25/07,2007,4/25/27,2027
1009431,HOUSING REHABILITATION PROGRAM,35.919116,-79.060784,Active,10,5/7/12,2012,5/7/27,2027
1064075,LEGION CROSSING APARTMENTS,34.995703,-78.920949,Active,48,1/1/06,2006,5/8/27,2027
1065234,WINDHILL COURT LLC,36.12009,-79.74367,Active,64,5/12/07,2007,5/12/27,2027
1004859,SIX CHURCHES PLAZA-KINSTON TOWERSII,35.26468,-77.57993,Active,110,7/1/07,2007,6/1/27,2027
1063037,CHURCH MANOR/ROLAND L PAYLOR APARTMENTS,35.26617,-77.58404,Active,40,7/1/07,2007,6/1/27,2027
1128126,MILLER GROVE APARTMENTS,36.074122,-79.783747,Active,48,6/15/07,2007,6/15/27,2027
1128148,PLAZA WEST DEVELOPMENT LLC,36.079851,-80.236516,Active,11,6/21/07,2007,6/21/27,2027
1064084,THE GRIFFIN APARTMENTS,35.59269,-82.55787,Active,50,1/1/06,2006,6/25/27,2027
1065560,,34.233482,-77.930763,Active,2,6/30/07,2007,6/30/27,2027
1065423,OAK HOLLOW APARTMENTS,35.76418,-78.56723,Active,10,7/16/07,2007,7/16/27,2027
1063960,WOODGREEN II APARTMENTS,35.13368,-79.44274,Active,44,1/1/03,2003,8/15/27,2027
1064088,VILLAGE OF NEW HOPE,35.80426,-78.56343,Active,45,1/1/06,2006,8/17/27,2027
1064077,PERRY HILL APARTMENTS,35.87358,-78.54017,Active,48,1/1/06,2006,8/22/27,2027
1010220,HIGHLAND VILLAGE APARTMENTS,35.784518,-78.794506,Active,50,1/1/05,2005,8/28/27,2027
1017475,SPRINGWOOD APARTMENTS,36.329736,-78.415542,Active,50,1/1/72,1972,8/31/27,2027
1064126,WATERBROOK APARTMENTS,35.77649,-78.58046,Active,64,1/1/07,2007,9/6/27,2027
1065443,PERRY CREEK HOUSING ASSOCIATES-7350 LOUI,35.87393,-78.54241,Active,48,9/7/07,2007,9/7/27,2027
1064079,PHOENIX PARK II,34.792792,-77.431802,Active,48,1/1/02,2002,9/26/27,2027
1064158,MONTGOMERY GARDENS APARTMENTS,35.30651,-80.85937,Active,76,9/27/07,2007,9/27/27,2027
1065263,Honeycreek Senior Apartments,35.19832,-80.71956,Active,78,1/1/04,2004,9/27/27,2027
1064124,THE HAVENS AT WILLOW OAKS,36.06538,-79.76169,Active,60,1/1/07,2007,9/29/27,2027
1065272,,35.613621,-77.38998,Active,1,10/4/12,2012,10/4/27,2027
1065510,CRESTON COMMONS II,35.18068,-79.42825,Active,32,1/1/05,2005,10/22/27,2027
1065005,PARTNERSHIP VILLAGE - PHASE III,36.127469,-79.791924,Active,12,11/2/07,2007,11/2/27,2027
1120119,SHALLOTTE MANOR APARTMENTS,33.977361,-78.405457,Active,36,8/1/85,1985,11/3/27,2027
1010451,,35.990931,-78.892014,Active,10,11/28/07,2007,11/28/27,2027
1023223,SCOTT MITCHELL APARTMENTS III,36.40931,-78.26402,Active,16,6/14/89,1989,12/1/27,2027
1065564,,34.232585,-77.930658,Active,2,12/6/07,2007,12/6/27,2027
1107489,SANDHILL MANOR ON COURTLAND,35.458867,-79.164357,Active,50,1/1/07,2007,12/20/27,2027
1008992,INDEPENDENCE COTTAGES PHASE 2,35.596794,-82.541794,Active,4,12/31/07,2007,12/31/27,2027
1115571,WAYNESVILLE TOWERS,35.4897,-82.98951,Active,62,6/5/81,1981,12/31/27,2027
1064152,HOPEWOOD APARTMENTS,34.218745,-77.930051,Active,16,1/1/98,1998,1/1/28,2028
1064187,CAMELLIA COURT APARTMENTS,34.73491,-76.78199,Active,44,1/1/98,1998,1/1/28,2028
1064188,APPLE TREE APARTMENTS,35.455675,-79.146504,Active,40,1/1/98,1998,1/1/28,2028
1064191,CASPN HOMES SUPPORTIVE HOUSING FOR THE ELDERLY,35.69471,-79.817,Active,51,1/1/98,1998,1/1/28,2028
1064193,EXCELSIOR APARTMENTS,35.26419,-82.7063,Active,20,1/1/98,1998,1/1/28,2028
1064195,GLENDALE APARTMENTS,36.00274,-78.89546,Active,29,1/1/98,1998,1/1/28,2028
1064197,HOOPER SCHOOL APARTMENTS,34.22155,-77.94231,Active,50,1/1/98,1998,1/1/28,2028
1064199,LONGVIEW APARTMENTS,35.11115,-78.87754,Active,48,1/1/98,1998,1/1/28,2028
1064201,MANOR RIDGE APARTMENTS,34.97902,-80.44876,Active,32,1/1/98,1998,1/1/28,2028
1064203,MC CORMICK HEIGHTS,35.58887,-82.54797,Active,100,7/1/72,1972,1/1/28,2028
1064205,OVERLOOK APARTMENTS,35.58325,-82.5633,Active,112,1/1/98,1998,1/1/28,2028
1064209,IVY COMMONS,35.96548,-78.90858,Active,223,1/1/98,1998,1/1/28,2028
1064211,WEST HAVEN APARTMENTS,35.71825,-78.85618,Active,72,1/1/98,1998,1/1/28,2028
1064212,SOMERSET COURT APARTMENTS,35.72039,-77.88994,Active,48,1/1/98,1998,1/1/28,2028
1064213,WOODLAND PARK APARTMENTS,35.73746,-81.37115,Active,64,1/1/98,1998,1/1/28,2028
1064215,WOODRIDGE APARTMENTS,35.60163,-82.58451,Active,160,9/1/73,1973,1/1/28,2028
1064287,CATELAND PLACE,35.73501,-79.47694,Active,64,1/1/98,1998,1/1/28,2028
1064360,FIRST WARD PLACE,35.22522,-80.8337,Active,120,9/30/67,1967,1/1/28,2028
1064401,RIVER GLEN,35.4581,-82.53576,Active,38,1/1/98,1998,1/1/28,2028
1064405,NORTHGATE PHASE II APARTMENTS,35.29864,-81.28131,Active,24,1/1/98,1998,1/1/28,2028
1064409,CAROLINA SPRING,35.91238,-79.09412,Active,124,1/1/98,1998,1/1/28,2028
1064448,OLDE SCHOOL COMMONS APARTMENTS,35.7126,-78.61157,Active,45,1/1/98,1998,1/1/28,2028
1064516,STONECREEK APARTMENTS,35.55703,-80.81842,Active,100,1/1/98,1998,1/1/28,2028
1064698,RIDGEWOOD APARTMENTS,35.97003,-78.5279,Active,50,1/1/98,1998,1/1/28,2028
1064797,PARKVIEW APARTMENTS,35.41434,-80.85296,Active,108,1/1/98,1998,1/1/28,2028
1064815,BARRETT PLACE II,35.59154,-77.40103,Active,48,1/1/98,1998,1/1/28,2028
1064865,LAKESIDE APARTMENTS,36.300696,-76.212554,Active,50,1/1/98,1998,1/1/28,2028
1064961,WOODLAND OLNEY SCHOOL APARTMENTS,36.33497,-77.20406,Active,30,1/1/98,1998,1/1/28,2028
1106513,WILRIK HOTEL APARTMENTS,35.482027,-79.179946,Active,41,1/1/98,1998,1/1/28,2028
1107073,FOXBOROUGH PINES,36.318594,-78.373375,Active,60,1/1/98,1998,1/1/28,2028
1108258,COLEY-JENKINS INDEPENDENT LIVING CENTER,36.09213,-79.75614,Active,40,1/1/98,1998,1/1/28,2028
1108511,MILBURNIE ROAD APARTMENTS,35.78997,-78.60507,Active,50,1/1/98,1998,1/1/28,2028
1117023,WOODFIELD II,34.48466,-79.11319,Active,26,1/1/98,1998,1/1/28,2028
1117621,WESTVIEW APARTMENTS,35.21272,-80.00776,Active,18,11/6/97,1997,1/1/28,2028
1122114,CEDAR VILLAGE APARTMENTS,35.553323,-76.628666,Active,28,1/1/98,1998,1/1/28,2028
1151335,FOREST PARK GARDENS PHASE II,35.795981,-80.869298,Active,40,1/1/98,1998,1/1/28,2028
1065175,,35.917914,-79.086141,Active,2,1/9/13,2013,1/9/28,2028
1065177,PROPERTY ACQUISITION - CARRBORO,35.917663,-79.086495,Active,1,1/9/13,2013,1/9/28,2028
1065211,,35.918331,-79.063586,Active,1,1/9/13,2013,1/9/28,2028
1065169,,35.9176,-79.08641,Active,1,1/10/13,2013,1/10/28,2028
1065203,,35.910301,-79.064769,Active,1,1/10/13,2013,1/10/28,2028
1065215,,35.90897,-79.11422,Active,1,1/10/13,2013,1/10/28,2028
1008780,CAC OF METROLINA #6,35.13099,-80.83232,Active,5,1/23/08,2008,1/23/28,2028
1009970,COMMUNITY APARTMENTS CORP OF METROLINA #7,35.47354,-80.59616,Active,8,1/23/08,2008,1/23/28,2028
1012143,CHC OF CABARRUS COUNTY #2,35.3922,-80.556503,Active,7,1/23/08,2008,1/23/28,2028
1065089,COMMUNITY APARTMENTS CORP OF RANDOLPH COUNTY,35.683372,-79.835216,Active,10,1/23/08,2008,1/23/28,2028
1065358,,35.60048,-80.804528,Active,1,1/24/13,2013,1/24/28,2028
1065048,HOUSING FOR NEW HOPE,35.99356,-78.890542,Active,10,1/30/08,2008,1/30/28,2028
1064071,FOX HOLLOW,34.79157,-77.43165,Active,44,1/1/06,2006,2/8/28,2028
1011260,,35.267572,-81.188689,Active,4,2/26/08,2008,2/26/28,2028
1118408,DEERFIELD II,35.68192,-77.64482,Active,20,3/14/78,1978,2/29/28,2028
1118407,WINTERVILLE COURT,35.53206,-77.39735,Active,30,3/14/78,1978,3/1/28,2028
1128111,,35.262317,-80.851987,Active,2,3/29/18,2018,3/29/28,2028
1147323,M06MAGNOLIAPARKLP RH,35.17757,-80.93264,Active,24,10/3/06,2006,4/7/28,2028
1064122,TERRACE SPRING,35.835928,-78.570585,Active,48,1/1/07,2007,4/24/28,2028
1064105,EDENBRIDGE,34.73238,-76.75866,Active,40,1/1/07,2007,4/28/28,2028
1017465,BEAUMONT AVENUE APARTMENTS,36.1049,-79.414869,Active,100,2/1/73,1973,4/30/28,2028
1064668,LIFE HOUSE OF GREENVILLE,35.57811,-77.34102,Active,20,2/1/02,2002,5/12/28,2028
1012295,MAPLE RIDGE APARTMENTS - PHASE 3,35.065559,-79.040489,Active,80,5/30/08,2008,5/30/28,2028
1064752,BLANTON GREEN III APARTMENTS,35.09291,-78.94055,Active,36,1/1/07,2007,5/30/28,2028
1065558,THE ARC OF NC,34.246693,-77.895499,Active,4,5/30/08,2008,5/30/28,2028
1065568,,34.206648,-77.941876,Active,4,5/30/08,2008,5/30/28,2028
1023152,COSMO AND LEWIS ESTATES,35.75183,-78.61813,Active,14,11/3/89,1989,6/1/28,2028
1128121,,35.997204,-78.900211,Active,6,6/5/08,2008,6/5/28,2028
1107644,English Hills LLC,35.235182,-82.743433,Active,40,1/1/06,2006,6/13/28,2028
1064282,MAPLE RIDGE,35.06429,-79.04084,Active,48,1/1/08,2008,6/18/28,2028
1063134,WALKER LANDING APARTMENTS,36.28962,-76.23412,Active,155,8/1/74,1974,6/30/28,2028
1063181,CAROLINA COVE APARTMENTS,35.5918,-77.38784,Active,100,5/1/74,1974,6/30/28,2028
1106377,SUGAR HILL APARTMENTS,35.34194,-82.43083,Active,40,1/1/07,2007,6/30/28,2028
1116052,HICKORY HOLLOW APARTMENTS,35.486717,-83.002514,Active,72,4/13/78,1978,6/30/28,2028
1009303,MILSTEAD WOODS,36.147945,-81.149219,Active,41,7/15/13,2013,7/15/28,2028
1118594,ARDEN TOWN VILLAS,35.458289,-82.515766,Active,52,12/6/78,1978,7/23/28,2028
1064988,CREEKSIDE CORNERS III NEW CONSTR,35.500323,-80.852732,Active,3,7/30/08,2008,7/30/28,2028
1063184,WNC MITCHELL COUNTY GROUP HOME,36.01212,-82.16431,Active,7,3/23/90,1990,9/1/28,2028
1065315,,35.492298,-80.614202,Active,1,9/4/13,2013,9/4/28,2028
1011890,APARTMENT 4,35.944847,-77.803589,Active,4,9/25/08,2008,9/25/28,2028
1115613,PINE NEEDLE APARTMENTS,35.452547,-82.508734,Active,46,1/31/79,1979,10/17/28,2028
1121882,GROVE CREEK APARTMENTS,34.964027,-77.967708,Active,36,12/20/79,1979,10/29/28,2028
1121100,OAKWOOD VILLAGE APARTMENTS,35.38246,-81.96412,Active,28,8/12/98,1998,11/24/28,2028
1009064,GOLER MANOR,36.102119,-80.242191,Active,79,12/11/08,2008,12/11/28,2028
1119722,CROSS CREEK APARTMENTS,35.881474,-81.51403,Active,65,4/11/78,1978,12/25/28,2028
1063817,SACRED HEART VILLAS,33.950946,-78.034992,Active,44,1/1/99,1999,1/1/29,2029
1063838,E K BEST JR VILLAGE APARTMENTS PHASE II,35.27196,-77.56511,Active,50,1/1/99,1999,1/1/29,2029
1064217,BRAXTON MANOR,35.72352,-79.46036,Active,32,1/1/99,1999,1/1/29,2029
1064219,CROSSWINDS GREEN II,34.99745,-78.91882,Active,48,1/1/99,1999,1/1/29,2029
1064227,MEADOW SPRING APARTMENTS,35.78171,-78.72295,Active,33,1/1/99,1999,1/1/29,2029
1064411,PAMLICO APARTMENTS,35.22721,-80.8159,Active,32,1/1/99,1999,1/1/29,2029
1064433,CHAPMAN POINTE,35.30322,-81.1674,Inconclusive,76,1/1/99,1999,1/1/29,2029
1064939,PARTNERSHIP VILLAGE,36.12811,-79.7917,Active,32,1/1/99,1999,1/1/29,2029
1064942,TURNBRIDGE APARTMENTS PHASE II,36.14693,-79.77955,Inconclusive,60,1/1/99,1999,1/1/29,2029
1102697,WESTWOOD PARK APARTMENTS,35.79936,-78.87135,Active,72,1/1/99,1999,1/1/29,2029
1106299,PIRATES MOOR TOWNHOMES,36.005014,-75.656195,Active,44,1/1/99,1999,1/1/29,2029
1106393,THE MEADOWS,36.01014,-79.80786,Active,72,1/1/99,1999,1/1/29,2029
1106503,LAUREL POINTE,35.693104,-80.525516,Active,100,1/1/99,1999,1/1/29,2029
1106637,WHITE LAUREL,36.212517,-81.641305,Active,42,1/1/99,1999,1/1/29,2029
1106761,CREEKSIDE AT BELLEMEADE,35.930562,-79.981824,Active,76,1/1/99,1999,1/1/29,2029
1107351,WYNWOOD PLACE,35.77032,-78.61978,Inconclusive,24,1/1/99,1999,1/1/29,2029
1107484,CHARLOTTE SPRING,35.311515,-80.835374,Active,76,1/1/99,1999,1/1/29,2029
1107544,CANNON PLACE APARTMENTS,36.079879,-79.391028,Active,74,1/1/99,1999,1/1/29,2029
1107655,FOXRIDGE APARTMENTS,35.930083,-78.813358,Active,92,1/1/99,1999,1/1/29,2029
1107734,EV WILKINS COURT HOMES,35.880459,-76.617226,Active,16,1/1/99,1999,1/1/29,2029
1108518,ST LEO'S PLACE AT GREAT OAKS,36.08424,-79.77842,Active,44,1/1/99,1999,1/1/29,2029
1115527,NEW HORIZONS APARTMENTS,35.55461,-77.06182,Active,24,1/1/99,1999,1/1/29,2029
1117074,HILLSIDE APARTMENTS,35.46626,-81.26428,Active,20,1/1/99,1999,1/1/29,2029
1117094,BERRY PARK APARTMENTS,34.32276,-78.83142,Active,18,1/1/99,1999,1/1/29,2029
1118921,SNOW HILL GREEN APARTMENTS,35.45124,-77.684688,Active,48,11/9/83,1983,1/1/29,2029
1121609,SANTREE COMMONS,35.84089,-77.07983,Active,24,1/1/99,1999,1/1/29,2029
1108458,WATERFORD PLACE APARTMENTS,36.066446,-76.623632,Active,50,8/1/74,1974,1/2/29,2029
1064176,,35.774129,-78.645629,Active,12,1/5/09,2009,1/5/29,2029
1065016,HOLMAN HOMES DEVELOPMENT,35.988384,-78.88562,Active,20,1/8/09,2009,1/8/29,2029
1121857,MEADOWVIEW APARTMENTS,35.803676,-79.796492,Active,40,3/15/96,1996,3/7/29,2029
1064734,SOUTHVIEW VILLAS,34.97265,-78.92354,Active,64,1/1/08,2008,3/10/29,2029
1065103,CROWELL PARK Apartments,35.562746,-82.638678,Active,63,1/1/08,2008,4/1/29,2029
1065530,,35.774036,-80.887239,Active,1,4/25/14,2014,4/25/29,2029
1063401,RALPH CLAYTON HOMES,36.07777,-79.387594,Active,100,4/10/19,2019,4/30/29,2029
1118678,CHURCH STREET APARTMENTS,35.57985,-80.81434,Active,30,6/1/79,1979,5/19/29,2029
1065200,EASTSIDE GREEN APARTMENTS III,35.02124,-78.78683,Active,48,5/30/09,2009,5/30/29,2029
1124609,WESTRIDGE PLACE,35.691189,-80.517868,Active,60,1/1/08,2008,6/17/29,2029
1126910,SHERWOOD PLACE,35.68291,-79.83667,Active,40,1/1/08,2008,6/17/29,2029
1065181,E-4 AND E-8 ABBY COURT,35.9063,-79.08443,Active,2,4/9/96,1996,6/18/29,2029
1063131,BROOKBERRY PARK APARTMENTS,34.33038,-78.71088,Active,50,1/1/07,2007,6/30/29,2029
1065554,THE POINTE AT TAYLOR ESTATES,34.256637,-77.946434,Active,144,6/30/09,2009,6/30/29,2029
1122055,JACOBS SQUARE APARTMENTS,35.001969,-78.312371,Active,21,7/30/99,1999,7/22/29,2029
1065524,,35.771648,-80.889485,Active,1,7/28/14,2014,7/28/29,2029
1065526,,35.771544,-80.888857,Active,1,7/28/14,2014,7/28/29,2029
1064992,,36.36607,-80.72367,Active,1,8/19/09,2009,8/19/29,2029
1065218,,35.256996,-81.176437,Active,2,8/26/09,2009,8/26/29,2029
1063182,SPRING VALLEY APARTMENTS,35.95738,-79.99882,Active,79,5/1/70,1970,8/31/29,2029
1063423,BURLINGTON HOMES,36.08512,-79.43131,Active,100,8/1/15,2015,8/31/29,2029
1065400,WAKEFIELD MANOR,35.941273,-78.546492,Active,39,8/31/09,2009,8/31/29,2029
1065412,HOPE CREST,35.777966,-78.612524,Active,10,9/8/09,2009,9/8/29,2029
1062966,CABARRUS ARMS APARTMENTS,35.48465,-80.63322,Active,76,6/1/74,1974,9/29/29,2029
1063361,PARKSIDE APARTMENTS,36.05098,-79.79687,Active,71,5/1/70,1970,9/30/29,2029
1147330,,34.206466,-77.942657,Active,16,10/8/09,2009,10/8/29,2029
1121065,ROBINWOOD,36.11481,-80.09682,Active,84,1/1/89,1989,10/17/29,2029
1064996,ACQUISITION/RENOVATION-1109 ROSEDALE AVE,35.988833,-78.921487,Active,1,10/26/19,2019,10/26/29,2029
1117394,WOODRIDGE VILLAGE APARTMENTS,35.21504,-78.06034,Active,50,5/28/80,1980,11/14/29,2029
1119687,EDGEWOOD PLACE APARTMENTS,35.368751,-80.194356,Active,56,3/28/77,1977,11/23/29,2029
1063409,BROOKWOOD APARTMENTS,36.40726,-78.96512,Active,90,12/1/74,1974,11/30/29,2029
1063375,GATEWOOD VILLAGE,34.978495,-80.449833,Active,40,6/19/90,1990,12/1/29,2029
1064337,ELMHURST APARTMENTS,35.901322,-77.54236,Active,50,7/1/78,1978,12/1/29,2029
1065437,CASA4761-4761 BLUEBIRD CT,35.781662,-78.719806,Active,10,12/22/09,2009,12/22/29,2029
1118537,STONEBRIDGE APARTMENTS,35.742588,-81.65775,Active,60,12/4/79,1979,12/24/29,2029
1120685,WOODS II,36.33077,-78.43848,Active,72,7/28/78,1978,12/24/29,2029
1065506,Salisbury CDC,35.668332,-80.485014,Active,1,12/31/14,2014,12/31/29,2029
1063824,ANDREWS HEIGHTS,36.10732,-80.21919,Active,56,1/1/00,2000,1/1/30,1930
1063826,ARROWOOD VILLAS,35.137757,-80.888515,Active,120,1/1/00,2000,1/1/30,1930
1063828,BAKER HOUSE APARTMENTS,34.62685,-79.00593,Active,13,1/1/00,2000,1/1/30,1930
1063830,BAY RIVER APARTMENTS,35.131483,-76.781828,Active,20,1/1/00,2000,1/1/30,1930
1063834,CEDAR BLUFFS APARTMENTS,35.34737,-82.44091,Active,64,1/1/00,2000,1/1/30,1930
1063842,Kingsgate South Apartments,36.04742,-79.80195,Active,36,1/1/00,2000,1/1/30,1930
1063844,LINCOLN HEIGHTS APARTMENTS,35.26273,-80.85225,Active,60,1/1/00,2000,1/1/30,1930
1063846,LONGLEAF APARTMENTS,34.6209,-78.9839,Active,36,1/1/00,2000,1/1/30,1930
